,Name,Address,Latitude,Longitude,Distance,SafetyGrade
0,Alaska Regional Hospital,"2801 DEBARR ROAD, Anchorage, AK 99508-2997",61.210404,-149.8286335,7918.0198498343,a
1,Mat-Su Regional Medical Center,"2500 South Woodworth Loop, Palmer, AK 99645",61.562971,-149.2578179,7887.2712026392,b
2,Bartlett Regional Hospital,"3260 Hospital Drive, Juneau, AK 99801-7808",58.328916,-134.4650653,7708.9709345946,c
3,Central Peninsula General Hospital,"250 Hospital Place, Soldotna, AK 99669-6999",60.4934413,-151.0780122,7982.4571687651,c
4,Fairbanks Memorial Hospital,"1650 Cowles Street, Fairbanks, AK 99701-5998",64.8311569,-147.7399472,7674.3740755271,c
5,Providence Alaska Medical Center,"3200 Providence Drive, Anchorage, AK 99508",61.189803,-149.8187667,7919.0242631747,c
6,Ascension Providence,"6801 Airport Boulevard, Mobile, AL 36608-3785",30.6782817,-88.1985523,6111.0615616372,a
7,Evergreen Medical Center,"101 Crestview Avenue, Evergreen, AL 36401-0706",31.4307995,-86.9404629,6037.7560708086,a
8,Fayette Medical Center,"1653 Temple Avenue N, Fayette, AL 35555-1314",33.7085114,-87.8245026,6093.0746862807,a
9,Grandview Medical Center,"3690 Grandview Parkway, Birmingham, AL 35243",33.4326147,-86.7185683,6028.9307006448,a
10,Mizell Memorial Hospital,"702 North Main Street, Opp, AL 36467",31.2919852,-86.2542062,5996.9924536332,a
11,Monroe County Hospital,"2016 S. Alabama Avenue, Monroeville, AL 36460",31.498257,-87.3206816,6060.277046885,a
12,South Baldwin Regional Medical Center,"1613 N. McKenzie Street, Foley, AL 36535-2299",30.4260938,-87.6843079,6080.1519541927,a
13,Southeast Health Medical Center,"1108 Ross Clark Circle, Dothan, AL 36301-3024",31.2167252,-85.3630676,5944.1996039266,a
14,Troy Regional Medical Center,"1330 Highway 231 S., Troy, AL 36081-1224",31.7811497,-85.9449087,5979.9954135171,a
15,Coosa Valley Medical Center,"315 W. Hickory Street, Sylacauga, AL 35150-2996",33.1644285,-86.2555388,6001.5833157235,b
16,Flowers Hospital,"4370 W. Main Street, Dothan, AL 36305-4000",31.2379068,-85.456757,5949.7908479692,b
17,Gadsden Regional Medical Center,"1007 Goodyear Avenue, Gadsden, AL 35903-1195",34.0077928,-85.9658747,5987.1135347824,b
18,Madison Hospital,"8375 Highway 72 W, Madison, AL 35758",34.747074,-86.7649399,6034.4786634213,b
19,North Baldwin Infirmary,"1815 Hand Avenue, Bay Minette, AL 36507-4110",30.9039384,-87.7850231,6086.8019976969,b
20,Northwest Medical Center,"1530 US Highway 43, Winfield, AL 35594-5056",33.930952,-87.824744,6093.4133883659,b
21,Springhill Medical Center,"3719 Dauphin Street, Mobile, AL 36608",30.6854594,-88.1316966,6107.0977422878,b
22,St. Vincent's Birmingham,"810 St. Vincent's Drive, Birmingham, AL 35205-1695",33.5071812,-86.7889111,6033.1438691791,b
23,Thomas Hospital,"750 Morphy Avenue, Fairhope, AL 36532-1812",30.5199796,-87.8882023,6092.417942621,b
24,Andalusia Health,"849 S. Three Notch Street, Andalusia, AL 36420-5325",31.2994329,-86.4925119,6011.070676873,c
25,Athens-Limestone Hospital,"700 W. Market Street, Athens, AL 35611-2457",34.8042607,-86.979177,6046.7537899995,c
26,Atmore Community Hospital,"401 Medical Park Drive, Atmore, AL 36502-3091",31.016364,-87.479345,6068.8609676712,c
27,Brookwood Baptist Medical Center,"2010 Brookwood Medical Center Drive, Birmingham, AL 35209-6875",33.4642365,-86.7764088,6032.331823743,c
28,Citizens Baptist Medical Center,"604 Stone Avenue, Talladega, AL 35160-2217",33.439795,-86.0921538,5992.8532347626,c
29,Crestwood Medical Center,"One Hospital Drive, Huntsville, AL 35801-3403",34.6935826,-86.572207,6023.4173025458,c
30,Cullman Regional Medical Center,"1912 Alabama Highway 157, Cullman, AL 35058",34.207676,-86.8748921,6039.5662341126,c
31,D. W. McMillan Memorial Hospital,"1301 Belleville Avenue, Brewton, AL 36426-1306",31.125938,-87.0717594,6044.9342570056,c
32,Dale Medical Center,"126 Hospital Avenue, Ozark, AL 36360-2080",31.451328,-85.632075,5960.7244488613,c
33,DeKalb Regional Medical Center,"200 Medical Center Drive, Fort Payne, AL 35968-3415",34.438606,-85.7556718,5976.3257166023,c
34,East Alabama Medical Center,"2000 Pepperell Parkway, Opelika, AL 36801",32.6401629,-85.4037506,5950.7787106797,c
35,Helen Keller Hospital,"1300 S. Montgomery Avenue, Sheffield, AL 35660-6334",34.7464826,-87.6989299,6087.4796520807,c
36,Highlands Medical Center,"380 Woods Cove Road, Scottsboro, AL 35768-2428",34.6617313,-86.0466607,5993.4966157714,c
37,Huntsville Hospital,"101 Sivley Road, Huntsville, AL 35801-4470",34.721046,-86.581799,6024.0263667391,c
38,Jack Hughston Memorial Hospital,"4401 Riverchase Drive, Phenix City, AL 36867",32.5080845,-85.0086714,5927.3883108374,c
39,Jackson Hospital,"1725 Pine Street, Montgomery, AL 36106-1117",32.3670831,-86.2853492,6001.3718726613,c
40,Medical Center Barbour,"820 W. Washington Street, Eufaula, AL 36027-1899",31.8887,-85.1562,5934.0444831542,c
41,Medical Center Enterprise,"400 N. Edwards Street, Enterprise, AL 36330-2584",31.318647,-85.855114,5973.5146464085,c
42,"Medical West Hospital Authority, an Affiliate of UAB Health System","995 9th Avenue SW, Bessemer, AL 35022-4527",33.3731473,-86.9916643,6044.550829788,c
43,Mobile Infirmary Medical Center,"5 Mobile Infirmary Circle, Mobile, AL 36607-3513",30.6963935,-88.0798395,6104.0299571276,c
44,North Alabama Medical Center,"1701 Veterans Drive, Florence, AL 35630-4928",34.8043939,-87.6509453,6084.8498840268,c
45,Prattville Baptist Hospital,"124 S. Memorial Drive, Prattville, AL 36067-3619",32.464172,-86.451767,6011.3005717599,c
46,Princeton Baptist Medical Center,"701 Princeton Avenue SW, Birmingham, AL 35211-1305",33.4984021,-86.8470166,6036.4712240342,c
47,Riverview Regional Medical Center,"600 So. Third Street, Gadsden, AL 35901-5399",34.004403,-86.003626,5989.2648547245,c
48,RMC Anniston,"400 East 10th Street, Anniston, AL 36207",33.6563953,-85.8228352,5977.941436348,c
49,Russell Medical Center,"3316 Highway 280, Alexander City, AL 35010-3369",32.9212543,-85.9567325,5983.6666025392,c
50,Shelby Baptist Medical Center,"1000 First Street N., Alabaster, AL 35007-0488",33.2524436,-86.8135545,6034.0240375944,c
51,St. Vincent's East,"50 Medical Park E. Drive, Birmingham, AL 35235-9987",33.596457,-86.6676502,6026.3600920742,c
52,St. Vincent's St. Clair,"7063 Veterans Parkway, Pell City, AL 35125",33.6043127,-86.3018159,6005.3382978677,c
53,Stringfellow Memorial Hospital,"301 E. 18th Street, Anniston, AL 36207-0038",33.6677024,-85.8250278,5978.0990100316,c
54,UAB Highlands,"1201 11th Avenue S., Birmingham, AL 35205",33.4950136,-86.8062318,6034.1153322291,c
55,University Hospital,"2451 University Hospital Drive, Mobile, AL 36617-2293",30.7209797,-88.1021185,6105.382088301,c
56,University of Alabama Hospital,"1802 6th Ave South, Birmingham, AL 35233",33.5066461,-86.8030955,6033.9594803705,c
57,Vaughan Regional Medical Center,"1015 Medical Center Parkway, Selma, AL 36701-6352",32.429449,-87.0560426,6046.443153301,c
58,Walker Baptist Medical,"3400 Highway 78 E., Jasper, AL 35502-8956",33.841043,-87.2365408,6059.5375026698,c
59,Whitfield Regional Hospital,"105 Highway 80 E., Demopolis, AL 36732-3616",32.3507509,-88.7433797,6144.7572607715,c
60,Baptist Medical Center East,"400 Taylor Road, Montgomery, AL 36117-3512",32.387975,-86.1758784,5995.0392111191,d
61,Baptist Medical Center South,"2105 E. South Boulevard, Montgomery, AL 36116-2498",32.3269463,-86.2710335,6000.4403318308,d
62,DCH Regional Medical Center,"809 University Boulevard E., Tuscaloosa, AL 35401-9961",33.2053981,-87.5264812,6075.1229606919,d
63,Decatur Morgan Hospital - Decatur Campus,"1201 7th Street SE, Decatur, AL 35601-3303",34.5904135,-86.972417,6045.9258403894,d
64,Decatur Morgan Hospital-Parkway Campus,"1874 Beltline Road SW, Decatur, AL 35601-5509",34.5771378,-87.0158033,6048.3653007676,d
65,Marshall Medical Center North,"8000 Alabama Highway 69, Guntersville, AL 35976",34.366053,-86.421267,6014.0464387227,d
66,Marshall Medical Center South,"2505 US Highway 431, Boaz, AL 35957",34.22159,-86.160495,5998.8073620779,d
67,Northport Medical Center,"2700 Hospital Drive, Northport, AL 35476",33.23361,-87.571248,6077.7554311104,d
68,Shoals Hospital,"201 Avalon Avenue, Muscle Shoals, AL 35661-2805",34.7449732,-87.6756154,6086.1540264496,f
69,Clay County Hospital,"83825 Highway 9, Ashland, AL 36251",33.2773548,-85.8242805,5976.970980509,g
70,Community Hospital,"805 Friendship Road, Tallassee, AL 36078-1234",32.534053,-85.912363,5980.0624649192,g
71,Lakeland Community Hospital,"42024 Highway 195, Haleyville, AL 35565-9536",34.2419558,-87.5914018,6080.5468454834,g
72,Regional Medical Center of Central Alabama,"29 LV Stabler Drive, Greenville, AL 36037-3800",31.8290939,-86.64627,6021.2653619982,g
73,Russellville Hospital,"15155 Highway 43, Russellville, AL 35653-1975",34.5107726,-87.7183471,6088.2130579164,g
74,St Vincent's Chilton,"2030 Lay Dam Road, Clanton, AL 35045",32.8802913,-86.622606,6022.16950655,g
75,Wiregrass Medical Center,"1200 W. Maple Avenue, Geneva, AL 36340-1694",31.0481117,-85.8905067,5974.9073027933,g
76,CHI St. Vincent Hot Springs,"300 Werner Street, Hot Springs, AR 71913-9937",34.4681702,-93.0663135,6392.7323614746,a
77,Mercy Hospital Fort Smith,"7301 Rogers Avenue, Fort Smith, AR 72903-4189",35.3557971,-94.3526657,6463.2850728562,a
78,Mercy Hospital Northwest Arkansas,"2710 Rife Medical Lane, Rogers, AR 72758",36.3100716,-94.184714,6451.0086913836,a
79,NEA Baptist Memorial Hospital,"4800 East Johnson Avenue, Jonesboro, AR 72405-8413",35.8668678,-90.6367043,6253.7483090543,a
80,Northwest Medical Center Bentonville,"3000 Medical Center Parkway, Bentonville, AR 72712",36.3401242,-94.1914598,6451.2938543838,a
81,Northwest Medical Center Springdale,"609 West Maple Avenue, Springdale, AR 72764",36.1808233,-94.1364357,6448.7047951799,a
82,Siloam Springs Regional Hospital,"603 N Progress, Siloam Springs, AR 72761",36.1899429,-94.5077653,6469.3626743916,a
83,St. Bernards Medical Center,"225 East Washington Avenue, Jonesboro, AR 72401",35.8383772,-90.704126,6257.5372757126,a
84,Washington Regional Medical Center,"3215 N. North Hills Boulevard, Fayetteville, AR 72703-1994",36.0800001,-94.1535416,6449.9558570048,a
85,Baptist Health Medical Center - Conway,"1555 Exchange Avenue, Conway, AR 72032-7824",35.0564394,-92.4192706,6354.9112144061,b
86,Baptist Health Medical Center-Little Rock,"9601 Baptist Health Drive, Little Rock, AR 72205-6323",34.7444214,-92.3810554,6353.263255418,b
87,Baxter Regional Medical Center,"624 Hospital Drive, Mountain Home, AR 72653-2955",36.3429502,-92.3944185,6351.337936849,b
88,Medical Center of South Arkansas,"700 West Grove Street, El Dorado, AR 71730-4416",33.2183925,-92.6722845,6372.5409589045,b
89,Saint Mary's Regional Medical Center,"1808 West Main Street, Russellville, AR 72801-2724",35.28319,-93.149218,6395.681805856,b
90,Saline Memorial Hospital,"1 Medical Park Drive, Benton, AR 72015",34.572905,-92.585083,6365.1468108019,b
91,Baptist Health Medical Center - North Little Rock,"3333 Springhill Drive, North Little Rock, AR 72117-2922",34.7837697,-92.2220519,6344.1786361663,c
92,Conway Regional Medical Center,"2302 College Avenue, Conway, AR 72034",35.0859847,-92.4576613,6357.0314686825,c
93,Drew Memorial Health System,"778 Scogin Drive, Monticello, AR 71655-5728",33.6088487,-91.8150398,6322.5331676882,c
94,Great River Medical Center,"1520 North Division Street, Blytheville, AR 72315-1448",35.942244,-89.9188352,6213.559975035,c
95,Jefferson Regional Medical Center,"1600 West 40th Avenue, Pine Bluff, AR 71603-7089",34.189055,-92.0181788,6333.4322208557,c
96,Johnson Regional Medical Center,"1100 East Poplar Street, Clarksville, AR 72830-4419",35.4643692,-93.4449512,6411.9155614891,c
97,National Park Medical Center,"1910 Malvern Avenue, Hot Springs, AR 71901-7799",34.486004,-93.035211,6390.9245827183,c
98,Ouachita County Medical Center,"638 California Avenue SW, Camden, AR 71701-4699",33.5758644,-92.8362602,6381.3421875048,c
99,UAMS Medical Center,"4301 West Markham Street, Little Rock, AR 72205-7102",34.7492719,-92.3198281,6349.7805097099,c
100,Unity Health White County Medical Center,"3214 East Race Avenue, Searcy, AR 72143-4847",35.2506878,-91.6923333,6313.5789959815,c
101,White River Medical Center,"1710 Harrison Street, Batesville, AR 72501-2197",35.7678771,-91.6342957,6309.7128174569,c
102,Arkansas Methodist Medical Center,"900 West Kingshighway, Paragould, AR 72450",36.0525618,-90.4978107,6245.9064424934,d
103,Baptist Health - Fort Smith,"1001 Towson Avenue, Fort Smith, AR 72901",35.3741136,-94.419774,6467.0062186459,d
104,CHI St. Vincent Infirmary Medical Center,"2 St. Vincent Circle, Little Rock, AR 72205-5499",34.7504671,-92.3393722,6350.8877704046,d
105,CHI St. Vincent Medical Center-North,"2215 Wildwood Avenue, Sherwood, AR 72120",34.8129009,-92.208139,6343.3450716757,d
106,North Arkansas Regional Medical Center,"620 North Main Street, Harrison, AR 72601-2994",36.2366395,-93.1085129,6391.2977067245,d
107,Unity Health - Newport,"1205 McLain Street, Newport, AR 72112-3533",35.608492,-91.2648093,6289.1438618116,d
108,Baptist Health Medical Center - Stuttgart,"1703 North Buerkle Road, Stuttgart, AR 72160-1905",34.5178455,-91.5582488,6306.8024298633,g
109,Baptist Health Medical Center-Hot Spring County,"1001 Schneider Drive, Malvern, AR 72104-4828",34.3587893,-92.785668,6376.9610489927,g
110,Forrest City Medical Center,"1601 New Castle Road, Forrest City, AR 72335",35.0397728,-90.7758426,6261.9871834185,g
111,Helena Regional Medical Center,"1801 Martin Luther King Jr Drive, Helena, AR 72342",34.5102191,-90.6271793,6253.8062789331,g
112,Mena Regional Health System,"311 North Morrow Street, Mena, AR 71953-2516",34.5890564,-94.2216623,6458.1495252859,g
113,BANNER GATEWAY MEDICAL CENTER,"1900 NORTH HIGLEY ROAD, GILBERT, AZ 85234",33.3826926,-111.7209955,7461.7659641534,a
114,Banner Goldfield Medical Center,"2050 West Southern Avenue, Apache Junction, AZ 85120",33.3943945,-111.5670965,7452.9198708775,a
115,Banner Ironwood Medical Center,"37000 N Gantzel Rd, Queen Creek, AZ 85140",33.2144943,-111.5656332,7455.4734168522,a
116,Deer Valley Medical Center,"19829 North 27th Avenue, Phoenix, AZ 85027-4002",33.6657269,-112.1161079,7479.7391084883,a
117,Kingman Regional Medical Center,"3269 Stockton Hill Road, Kingman, AZ 86409-3691",35.2203182,-114.0371188,7560.9723792146,a
118,Mayo Clinic Hospital,"5777 EAST MAYO BLVD, PHOENIX, AZ 85054-4502",33.6582437,-111.956235,7470.8817754555,a
119,Northwest Medical Center,"6200 North La Cholla Boulevard, Tucson, AZ 85741-3599",32.3202768,-111.0100752,7436.6416495481,a
120,Oro Valley Hospital,"1551 East Tangerine Road, Oro Valley, AZ 85755",32.42926,-110.949664,7431.6741991213,a
121,SHEA MEDICAL CENTER,"9003 EAST SHEA BOULEVARD, SCOTTSDALE, AZ 85260-6771",33.580069,-111.8851432,7468.0640871535,a
122,THOMPSON PEAK HOSPITAL,"7400 E. Thompson Peak Pkwy, SCOTTSDALE, AZ 85255",33.6706949,-111.9220325,7468.7748175475,a
123,Abrazo Arrowhead Campus,"18701 North 67th Avenue, Glendale, AZ 85308-5722",33.6550895,-112.2015464,7484.6935913667,b
124,BANNER - UNIVERSITY MEDICAL CENTER PHOENIX,"1111 EAST MCDOWELL RD, PHOENIX, AZ 85006-2666",33.465137,-112.057972,7479.5073535628,b
125,BANNER BAYWOOD MEDICAL CENTER,"6644 E. BAYWOOD AVE, MESA, AZ 85206-1797",33.4113555,-111.6874923,7459.4544008247,b
126,BANNER BOSWELL MEDICAL CENTER,"10401 W THUNDERBIRD BLVD, SUN CITY, AZ 85351-3004",33.6042603,-112.2837994,7490.0841927942,b
127,Banner Casa Grande Medical Center,"1800 East Florence Boulevard, Casa Grande, AZ 85122",32.8807401,-111.7097455,7468.5061503296,b
128,BANNER DEL E WEBB MEDICAL CENTER,"14502 WEST MEEKER BLVD, SUN CITY WEST, AZ 85375-5299",33.659653,-112.372831,7494.2293056542,b
129,BANNER DESERT MEDICAL CENTER,"1400 SOUTH DOBSON ROAD, MESA, AZ 85202-9879",33.3899841,-111.877013,7470.4477606473,b
130,BANNER ESTRELLA MEDICAL CENTER,"9201 WEST THOMAS ROAD, PHOENIX, AZ 85037-3332",33.478176,-112.257442,7490.5263743383,b
131,BANNER THUNDERBIRD MEDICAL CENTER,"5555 WEST THUNDERBIRD ROAD, GLENDALE, AZ 85306-4696",33.6092024,-112.1795965,7484.160595444,b
132,Banner University Medical Center-South,"2800 East Ajo Way, Tucson, AZ 85713-6289",32.1778717,-110.9295523,7434.0032565599,b
133,Canyon Vista Medical Center,"5700 East Highway 90, Sierra Vista, AZ 85635",31.554586,-110.230876,7402.1637975987,b
134,Carondelet St. Mary's Hospital,"1601 West St Mary's Road, Tucson, AZ 85745-2682",32.228313,-110.9995908,7437.3178128883,b
135,Dignity Health Arizona General Hospital - Mesa,"9130 East Elliot Road, Mesa, AZ 85212",33.3509231,-111.6372866,7457.5161151552,b
136,Flagstaff Medical Center,"1200 North Beaver Street, Flagstaff, AZ 86001-3198",35.20832,-111.643986,7429.9047996185,b
137,John C. Lincoln Medical Center,"250 East Dunlap Avenue, Phoenix, AZ 85020-2446",33.5694587,-112.0708775,7478.6585221116,b
138,Osborn Medical Center,"7400 EAST OSBORN ROAD, SCOTTSDALE, AZ 85251-6403",33.4886726,-111.9231494,7471.5700484135,b
139,St. Joseph's Hospital,"350 North Wilmot Road, Tucson, AZ 85711-2678",32.2265668,-110.855335,7429.0808038098,b
140,St. Joseph's Hospital & Medical Center,"350 West Thomas Road, Phoenix, AZ 85013-4496",33.4819191,-112.0793604,7480.4572541581,b
141,St. Joseph's Westgate Medical Center,"7300 N. 99th Ave, Glendale, AZ 85307-3003",33.5420566,-112.2746731,7490.521471494,b
142,Tucson Medical Center,"5301 East Grant Road, Tucson, AZ 85712-2874",32.252903,-110.8780795,7430.0206911709,b
143,Verde Valley Medical Center,"269 S Candy Lane, Cottonwood, AZ 86326-4170",34.7357759,-112.0292561,7458.4713064178,b
144,Abrazo Scottsdale Campus,"3929 East Bell Road, Phoenix, AZ 85032-2196",33.639414,-111.9973914,7473.4756873422,c
145,Abrazo West Campus,"13677 West McDowell Road, Goodyear, AZ 85395",33.462078,-112.352936,7496.1397438153,c
146,Banner University Medical Center-Tucson,"1501 N Campbell Ave, Tucson, AZ 85724",32.2409829,-110.9457686,7434.0607835617,c
147,Chandler Regional Medical Center,"1955 W. Frye Rd., Chandler, AZ 85224-4230",33.2973867,-111.8746054,7471.6907814715,c
148,Havasu Regional Medical Center,"101 Civic Center Lane, Lake Havasu City, AZ 86403-5683",34.4803821,-114.3388668,7590.2530148519,c
149,Mercy Gilbert Medical Center,"3555 S Val Vista Drive, Gilbert, AZ 85297",33.2868623,-111.7524572,7464.95692992,c
150,Mt. Graham Regional Medical Center,"1600 South 20th Avenue, Safford, AZ 85546-4097",32.822625,-109.734994,7357.0392810838,c
151,Valleywise Health,"2601 East Roosevelt Street, Phoenix, AZ 85008-4956",33.4576589,-112.0261121,7477.8276713895,c
152,Western Arizona Regional Medical Ctr,"2735 SILVER CREEK ROAD, Bullhead City, AZ 86442",35.1106768,-114.5550458,7591.1899956508,c
153,Yavapai Regional Medical Center - East Campus,"7700 East Florentine Road, Prescott Valley, AZ 86314",34.58822,-112.3309496,7477.4755553306,c
154,Yavapai Regional Medical Center - West Campus,"1003 Willow Creek Road, Prescott, AZ 86301-1668",34.5596203,-112.4811881,7486.2477821661,c
155,Abrazo Central Campus,"2000 West Bethany Home Road, Phoenix, AZ 85015-2443",33.5247707,-112.1021957,7481.0937584793,d
156,Florence Hospital,"4545 North Hunt Highway, Florence, AZ 85132-6937",33.073207,-111.4854392,7452.9962839549,d
157,Mountain Vista Medical Center,"1301 South Crismon Road, Mesa, AZ 85209",33.3913915,-111.6111373,7455.4462996483,d
158,Summit Healthcare Regional Medical Center,"2200 East Show Low Lake Road, Show Low, AZ 85901-7800",34.2019458,-110.0191523,7354.436313981,d
159,Tempe St. Luke's Hospital,"1500 S. Mill Ave., Tempe, AZ 85281-6699",33.412361,-111.9406049,7473.6947580554,d
160,Tuba City Regional Health Care Corporation,"167 North Main St., Tuba City, AZ 86045",36.1362562,-111.2397562,7393.4777651233,d
161,Valley View Medical Center,"5330 South Highway 95, Fort Mohave, AZ 86426-9225",35.0027485,-114.5962766,7595.3398021545,d
162,Yuma Regional Medical Center,"2400 South Avenue A, Yuma, AZ 85364-7170",32.6823988,-114.634916,7637.1195148642,d
163,Adventist Health - Bakersfield,"2615 Chester Avenue, Bakersfield, CA 93301-2006",35.3833475,-119.0205429,7827.7829684579,a
164,Adventist Health Glendale,"1509 Wilson Terrace, Glendale, CA 91206-4098",34.1503596,-118.2300566,7810.2623225566,a
165,Adventist Health Hanford,"115 Mall Drive, Hanford, CA 93230-3513",36.3237872,-119.6664466,7841.8158676335,a
166,Adventist Health Reedley,"372 W. Cypress Avenue, Reedley, CA 93654-2199",36.6080787,-119.4517641,7824.2385162694,a
167,Adventist Health Selma,"1141 Rose Avenue, Selma, CA 93662",36.5676997,-119.5991582,7832.87803033,a
168,Adventist Health St. Helena,"10 Woodland Road, St. Helena, CA 94574-9554",38.5425501,-122.4748268,7933.7326975683,a
169,Adventist Health Ukiah Valley,"275 Hospital Drive, Ukiah, CA 95482-4531",39.1531894,-123.2030161,7954.2195129498,a
170,Alhambra Hospital Medical Center,"100 S. Raymond Avenue, Alhambra, CA 91801-3199",34.090234,-118.1439896,7806.7438267443,a
171,Arroyo Grande Community Hospital,"345 S. Halcyon Road, Arroyo Grande, CA 93420-3899",35.1134961,-120.5904213,7917.7341289284,a
172,Barton Memorial Hospital,"2170 South Avenue, South Lake Tahoe, CA 96150-7026",38.911636,-119.9977995,7799.8655316342,a
173,Centinela Hospital Medical Center,"555 E. Hardy Street, Inglewood, CA 90301-4011",33.9507827,-118.3482572,7820.7193640196,a
174,Chino Valley Medical Center,"5451 Walnut Avenue, Chino, CA 91710-2672",34.0255174,-117.6858572,7782.8758834904,a
175,Community Hospital of the Monterey Peninsula,"23625 Holman Highway, Monterey, CA 93940",36.5788637,-121.9131591,7953.6267927996,a
176,Desert Valley Hospital,"16850 Bear Valley Road, Victorville, CA 92395",34.4717272,-117.2977603,7752.9405515691,a
177,Eisenhower Medical Center,"39000 Bob Hope Drive, Rancho Mirage, CA 92270-3221",33.7629019,-116.40063,7716.9543776663,a
178,El Camino Hospital,"2500 Grant Road, Mountain View, CA 94040",37.3693389,-122.080472,7943.0603395962,a
179,Encino Hospital Medical Center,"16237 Ventura Boulevard, Encino, CA 91436-2201",34.1575872,-118.4870689,7824.1804476421,a
180,Enloe Medical Center,"1531 Esplanade, Chico, CA 95926-3386",39.7421399,-121.8501891,7872.0471086138,a
181,French Hospital Medical Center,"1911 Johnson Avenue, San Luis Obispo, CA 93401-4131",35.2781709,-120.6511558,7917.3060153103,a
182,Garden Grove Hospital and Medical Center,"12601 Garden Grove Boulevard, Garden Grove, CA 92843",33.7749125,-117.9129403,7800.2537010675,a
183,Garfield Medical Center,"525 N. Garfield Avenue, Monterey Park, CA 91754-1205",34.0678947,-118.1238043,7806.0803056594,a
184,Goleta Valley Cottage Hospital,"351 S. Patterson Avenue, Goleta, CA 93111-2496",34.4338579,-119.8103152,7890.5109062758,a
185,Hoag Hospital Irvine,"16200 Sand Canyon Avenue, Irvine, CA 92618",33.6608946,-117.7722362,7794.7107921359,a
186,Hoag Memorial Hospital Presbyterian,"1 Hoag Drive, Newport Beach, CA 92663",33.6254053,-117.9303047,7804.1252150335,a
187,John Muir Medical Center Walnut Creek Campus,"1601 Ygnacio Valley Road, Walnut Creek, CA 94598-3194",37.9130871,-122.0408542,7927.6142323479,a
188,Kaiser Foundation Hospital - Antioch,"4501 Sand Creek Road, Antioch, CA 94531-8687",37.9508418,-121.7749286,7913.1479022267,a
189,Kaiser Foundation Hospital - Fremont,"39400 Paseo Padre Parkway, Fremont, CA 94538-2310",37.5524244,-121.974401,7933.1253962224,a
190,Kaiser Foundation Hospital - Fresno,"7300 N. Fresno Ave., Fresno, CA 93720-2941",36.8423418,-119.7804757,7836.2638899541,a
191,Kaiser Foundation Hospital - Manteca,"1777 W. Yosemite Avenue, Manteca, CA 95337-5130",37.79803,-121.246197,7889.8798802669,a
192,Kaiser Foundation Hospital - Modesto,"4601 Dale Road, Modesto, CA 95356-9718",37.7065812,-121.0524993,7882.1491565899,a
193,Kaiser Foundation Hospital - Redwood City,"1100 Veterans Boulevard, Redwood City, CA 94063-2037",37.4891185,-122.2251548,7947.5221703636,a
194,Kaiser Foundation Hospital - Roseville,"1600 Eureka Road, Roseville, CA 95661-3027",38.7474074,-121.2506572,7867.0303731794,a
195,Kaiser Foundation Hospital - San Francisco,"2425 Geary Boulevard, San Francisco, CA 94115-3358",37.7823277,-122.4432896,7951.350428999,a
196,Kaiser Foundation Hospital - San Jose,"250 Hospital Parkway, San Jose, CA 95119-1103",37.2397615,-121.8002485,7931.8185528942,a
197,Kaiser Foundation Hospital - San Rafael,"99 Montecillo Road, San Rafael, CA 94903-5114",38.0043293,-122.5546467,7951.4157799899,a
198,Kaiser Foundation Hospital - Santa Clara,"700 Lawrence Expressway, Santa Clara, CA 95051-5173",37.3358952,-121.99833,7939.6630373861,a
199,Kaiser Foundation Hospital - Santa Rosa,"401 Bicentennial Way, Santa Rosa, CA 95403-2149",38.47212,-122.7270141,7948.2000126488,a
200,Kaiser Foundation Hospital - South San Francisco,"1200 El Camino Real, South San Francisco, CA 94080-3208",37.6591974,-122.4393133,7954.2312464159,a
201,Kaiser Foundation Hospital - Vacaville,"1 Quality Drive, Vacaville, CA 95688-9494",38.3885135,-121.9380985,7910.5814313028,a
202,Kaiser Foundation Hospital - Vallejo,"975 Sereno Drive, Vallejo, CA 94589-2441",38.12767,-122.2484432,7932.7998981827,a
203,Kaiser Foundation Hospital - Walnut Creek,"1425 S. Main Street, Walnut Creek, CA 94596-5318",37.8915785,-122.0588864,7929.065203422,a
204,Kaiser Permanente Fontana Medical Center,"9961 Sierra Avenue, Fontana, CA 92335-6720",34.072245,-117.431968,7768.0198238065,a
205,Kaiser Permanente Los Angeles Medical Center,"4867 Sunset Boulevard, Los Angeles, CA 90027",34.0981604,-118.2954051,7814.8820281927,a
206,Kaiser Permanente Moreno Valley Medical Center,"27300 Iris Avenue, Moreno Valley, CA 92555-4800",33.897404,-117.186026,7757.8324860221,a
207,Kaiser Permanente Ontario Medical Center,"2295 S Vineyard Ave, Ontario, CA 91761",34.032459,-117.608757,7778.5045914086,a
208,Kaiser Permanente Orange County-Anaheim Medical Center,"3430 E. LaPalma Ave, Anaheim, CA 92806",33.852103,-117.8446219,7794.9855344399,a
209,Kaiser Permanente Orange County-Irvine Medical Center,"6650 Alton Parkway, Irvine, CA 92618",33.6578508,-117.7743829,7794.888222318,a
210,Kaiser Permanente San Diego Medical Center,"9455 Clairemont Mesa Blvd., San Diego, CA 92123",32.8297116,-117.1251884,7774.4813109676,a
211,Kaiser Permanente Zion Medical Center,"4647 Zion Avenue, San Diego, CA 92120-2507",32.7913395,-117.0951878,7773.5113121251,a
212,Kaweah Health,"400 W. Mineral King Avenue, Visalia, CA 93291-6263",36.3282957,-119.2949631,7822.1093815454,a
213,Keck Hospital of USC,"1500 San Pablo Street, Los Angeles, CA 90033-9857",34.0619943,-118.2012607,7810.4437572068,a
214,La Palma Intercommunity Hospital,"7901 Walker Street, La Palma, CA 90623-1722",33.847533,-118.038414,7805.7389683795,a
215,Loma Linda University Medical Center,"11234 Anderson Street, Loma Linda, CA 92354",34.0507571,-117.2639465,7759.19564584,a
216,Loma Linda University Medical Center East Campus,"25333 Barton Road, Loma Linda, CA 92354",34.0472104,-117.2515843,7758.5836109238,a
217,Los Robles Regional Medical Center,"215 West Janss Road, Thousand Oaks, CA 91360",34.2077675,-118.8830459,7844.7946064584,a
218,Marian Regional Medical Center,"1400 E. Church Street, Santa Maria, CA 93454-5906",34.9512414,-120.4133339,7911.834817326,a
219,Marshall Medical Center,"1100 Marshall Way, Placerville, CA 95667",38.7256227,-120.790957,7844.3734155474,a
220,MemorialCare Saddleback Medical Center,"24451 Health Center Drive, Laguna Hills, CA 92653-3689",33.6089013,-117.7087247,7792.2078625993,a
221,Mercy General Hospital,"4001 J Street, Sacramento, CA 95819-3600",38.5702596,-121.4524082,7881.5565771046,a
222,Palmdale Regional Medical Center,"38600 Medical Center Drive, Palmdale, CA 93551",34.5830354,-118.1450788,7796.9678020304,a
223,Palomar Medical Center Poway,"15615 Pomerado Road, Poway, CA 92064",32.9969733,-117.0560448,7767.5227762507,a
224,Paradise Valley Hospital,"2400 E. 4th Street, National City, CA 91950-2099",32.6851132,-117.0828852,7774.7788482481,a
225,Petaluma Valley Hospital,"400 N. McDowell Boulevard, Petaluma, CA 94954-2369",38.25459,-122.6316537,7948.9596649955,a
226,Providence St. Joseph Hospital Orange,"1100 West Stewart Drive, Orange, CA 92868-5600",33.7819985,-117.8652002,7797.4854193424,a
227,Salinas Valley Memorial Healthcare System,"450 E. Romie Lane, Salinas, CA 93901-4098",36.6593319,-121.646662,7937.8378593383,a
228,San Dimas Community Hospital,"1350 W. Covina Boulevard, San Dimas, CA 91773-3219",34.0976119,-117.8346593,7789.6367351972,a
229,Santa Barbara Cottage Hospital,"400 W. Pueblo Street, Santa Barbara, CA 93105-4311",34.4299066,-119.7233601,7885.8801444135,a
230,Scripps Green Hospital,"10666 N. Torrey Pines Rd, La Jolla, CA 92037-1093",32.8967799,-117.2428136,7779.8129687058,a
231,Scripps Memorial Hospital of Encinitas,"354 Santa Fe Drive, Encinitas, CA 92024-5182",33.0369008,-117.2839126,7779.4929233394,a
232,Scripps Memorial Hospital of La Jolla,"9888 Genesee Avenue, La Jolla, CA 92037-1200",32.8851578,-117.2255426,7779.0641134082,a
233,Scripps Mercy Hospital of San Diego,"4077 Fifth Avenue, San Diego, CA 92103-2105",32.7514518,-117.1600534,7777.8789872658,a
234,Sharp Chula Vista Medical Center,"751 Medical Center Court, Chula Vista, CA 91911-6699",32.6187715,-117.0229286,7772.6339523523,a
235,Sharp Coronado Hospital and Healthcare Center,"250 Prospect Place, Coronado, CA 92118-1999",32.6944487,-117.1686795,7779.4148573872,a
236,Sharp Grossmont Hospital,"5555 Grosssmont Center Drive, La Mesa, CA 91942-3019",32.7811433,-117.0074328,7768.7862933663,a
237,Sharp Memorial Hospital,"7901 Frost Street, San Diego, CA 92123-2701",32.7994945,-117.1542381,7776.6653280371,a
238,Shasta Regional Medical Center,"1100 Butte Street, Redding, CA 96001-0853",40.5855146,-122.3877763,7876.4879511094,a
239,Sherman Oaks Hospital,"4929 Van Nuys Boulevard, Sherman Oaks, CA 91403-1702",34.1602305,-118.4496328,7822.0797971093,a
240,Sierra Vista Regional Medical Center,"1010 Murray Avenue, San Luis Obispo, CA 93405-8800",35.2922246,-120.6658831,7917.7772579967,a
241,St. Elizabeth Community Hospital,"2550 Sister Mary Columba Drive, Red Bluff, CA 96080-4397",40.1485519,-122.2190196,7879.7077655676,a
242,St. Johnâ€™s Hospital Camarillo,"2309 Antonio Avenue, Camarillo, CA 93010-1414",34.2434645,-119.0198129,7851.5219839106,a
243,St. Joseph's Medical Center of Stockton,"1800 N. California Street, Stockton, CA 95204",37.9698676,-121.2887284,7887.9050096389,a
244,St. Jude Medical Center,"101 E. Valencia Mesa Drive, Fullerton, CA 92835-3875",33.8941778,-117.9276156,7798.7295582867,a
245,Stanford Health Care,"300 Pasteur Drive, Stanford, CA 94305",37.4332452,-122.1755633,7946.363199986,a
246,Sutter Auburn Faith Hospital,"11815 Education Street, Auburn, CA 95602-2410",38.9451031,-121.1000785,7854.6087404405,a
247,Sutter Santa Rosa Regional Hospital,"30 Mark West Springs Rd, Santa Rosa, CA 95403",38.4950726,-122.7519949,7948.8652758236,a
248,Twin Cities Community Hospital,"1100 Las Tablas Road, Templeton, CA 93465-9704",35.5553302,-120.7197485,7914.7309588889,a
249,UC San Diego Health Hillcrest - Hillcrest Medical Center,"200 West Arbor Drive, San Diego, CA 92103",32.754257,-117.1659225,7778.1557457222,a
250,UC San Diego Health La Jolla - Jacobs Medical Center and Sulpizio Cardiovascular Center,"9300 Campus Point Drive, La Jolla, CA 92037",32.8785625,-117.225776,7779.1997434609,a
251,UCLA Medical Center of Santa Monica,"1250 16th Street, Santa Monica, CA 90404-1249",34.0270998,-118.4863064,7826.7622623399,a
252,UCSF Health - Mission Bay,"1975 4th St, San Fancisco, CA 94158",37.7648549,-122.3902697,7949.0895435346,a
253,UCSF Medical Center Moffitt-Long Hospitals,"505 Parnassus Avenue, San Francisco, CA 94143-0296",37.7630895,-122.4578144,7952.5719629426,a
254,University of California Irvine Health,"101 The City Drive S., Orange, CA 92868-3298",33.7879885,-117.8901339,7798.7422041712,a
255,Adventist Health Lodi Memorial,"975 S. Fairmont Avenue, Lodi, CA 95240-5179",38.121858,-121.286652,7884.1161104706,b
256,Adventist Health Simi Valley,"2975 N. Sycamore Drive, Simi Valley, CA 93065-1201",34.2892065,-118.745137,7835.6069467763,b
257,Alameda Hospital,"2070 Clinton Avenue, Alameda, CA 94501-4397",37.7628157,-122.2534154,7942.170594641,b
258,Arrowhead Regional Medical Center,"400 N. Pepper Avenue, Colton, CA 92324-1819",34.0740156,-117.351125,7763.5426026358,b
259,Bakersfield Memorial Hospital,"420 34th Street, Bakersfield, CA 93301-2237",35.3918393,-119.006857,7826.8696147613,b
260,California Pacific Medical Center - Mission Bernal Campus,"3555 Cesar Chavez, San Francisco, CA 94110-4490",37.7470887,-122.4208774,7951.0925697036,b
261,Contra Costa Regional Medical Center,"2500 Alhambra Avenue, Martinez, CA 94553-3156",38.006764,-122.1327937,7929.9581667006,b
262,Doctors Medical Center of Modesto,"1441 Florida Avenue, Modesto, CA 95350-4418",37.6652146,-120.9972995,7880.3027628703,b
263,Eden Medical Center,"20103 Lake Chabot Road, Castro Valley, CA 94546-5367",37.6983405,-122.0896915,7935.4217308561,b
264,El Camino Hospital Los Gatos,"815 Pollard Road, Los Gatos, CA 95032",37.263022,-121.969376,7939.9566926175,b
265,Huntington Hospital,"100 W. California Boulevard, Pasadena, CA 91105-3097",34.133639,-118.152753,7806.3621114004,b
266,John Muir Medical Center Concord Campus,"2540 East Street, Concord, CA 94520",37.9837249,-122.0347814,7925.5526529673,b
267,Kaiser Foundation Hospital - Baldwin Park Medical Center,"1011 Baldwin Park Boulevard, Baldwin Park, CA 91706-5806",34.0655016,-117.9864524,7798.5950118624,b
268,Kaiser Foundation Hospital - Oakland,"3600 Broadway, Oakland, CA 94611-5730",37.8235195,-122.2582442,7940.9036678616,b
269,Kaiser Foundation Hospital - Richmond,"901 Nevin Avenue, Richmond, CA 94801-3143",37.93712,-122.3605023,7943.2609016642,b
270,Kaiser Foundation Hospital - Sacramento,"2025 Morse Avenue, Sacramento, CA 95825-2115",38.6018632,-121.3919202,7877.7265123346,b
271,Kaiser Foundation Hospital - San Leandro,"2500 Merced Street, San Leandro, CA 94577-4201",37.7063601,-122.1651409,7939.07328521,b
272,Kaiser Permanente Downey Medical Center,"9333 E. Imperial Highway, Downey, CA 90242-2812",33.9192416,-118.1288114,7809.2960235433,b
273,Kaiser Permanente Panorama City Medical Center,"13651 Willard St, Panorama City, CA 91402-5497",34.2185683,-118.4292711,7819.7930378279,b
274,Kaiser Permanente Riverside Medical Center,"10800 Magnolia Avenue, Riverside, CA 92505-3000",33.9047622,-117.4691755,7773.2937202572,b
275,LOMA LINDA UNIVERSITY MEDICAL CENTER-MURRIETA,"28062 Baxter Road, Murrieta, CA 92563",33.6145875,-117.1691492,7762.2609348417,b
276,Los Angeles County - Olive View UCLA Medical Center,"14445 Olive View Drive, Sylmar, CA 91342-1495",34.3259095,-118.4459572,7818.5410023189,b
277,"Martin Luther King, Jr. Community Hospital","1680 East 120th Street, Los Angeles, CA 90059-3026",33.9239277,-118.2451528,7815.5935737171,b
278,MemorialCare Orange Coast Medical Center,"9920 Talbert Avenue, Fountain Valley, CA 92708-5153",33.7003907,-117.9556226,7804.0605916729,b
279,Mercy San Juan Medical Center,"6501 Coyle Avenue, Carmichael, CA 95608-0306",38.6696228,-121.3140357,7872.1333451506,b
280,Methodist Hospital of Sacramento,"7500 Hospital Drive, Sacramento, CA 95823-5477",38.4631737,-121.4163638,7882.3675038282,b
281,Mills-Peninsula Medical Center,"1501 Trousdale Drive, Burlingame, CA 94010-4506",37.5921025,-122.3833423,7953.0508332462,b
282,Mission Hospital Laguna Beach,"31872 Coast Hwy, Laguna Beach, CA 92651",33.5005741,-117.740473,7796.0511026556,b
283,Natividad Medical Center,"1441 Constitution Boulevard, Salinas, CA 93906-3100",36.6973764,-121.6331609,7936.2279242479,b
284,NorthBay Medical Center,"1200 B. Gale Wilson Boulevard, Fairfield, CA 94533-3552",38.2618553,-122.0476112,7919.277429974,b
285,NorthBay VacaValley Hospital,"1000 Nut Tree Road, Vacaville, CA 95687",38.355856,-121.95196,7912.0960986076,b
286,Northridge Hospital Medical Center-Roscoe Boulevard Campus,"18300 Roscoe Boulevard, Northridge, CA 91325-4105",34.2205406,-118.5338644,7825.4685617092,b
287,Novato Community Hospital,"180 Rowland Way, Novato, CA 94945-5009",38.0993115,-122.5603633,7949.3020283493,b
288,Palomar Medical Center Escondido,"2185 Citracado Parkway, Escondido, CA 92029",33.1218939,-117.1214691,7768.8522480133,b
289,Parkview Community Hospital Medical Center,"3865 Jackson Street, Riverside, CA 92503-3998",33.9269682,-117.4398166,7771.2498172164,b
290,PIH Health Hospital - Downey,"11500 Brookshire Avenue, Downey, CA 90241",33.935296,-118.130298,7809.0605334339,b
291,PIH Health Hospital - Whittier,"12401 Washington Blvd, Whittier, CA 90602-1099",33.9690304,-118.0490717,7803.9336004668,b
292,Providence Little Company of Mary Medical Center Torrance,"4101 Torrance Boulevard, Torrance, CA 90503-4698",33.8385387,-118.3571537,7823.4426622087,b
293,Providence Mission Hospital Mission Viejo,"27700 Medical Center Road, Mission Viejo, CA 92691-6426",33.5610516,-117.6654654,7790.7382565676,b
294,Queen of the Valley Medical Center,"1000 Trancas Street, Napa, CA 94558-2906",38.3251588,-122.2966229,7930.2695172108,b
295,Redlands Community Hospital,"350 Terracina Boulevard, Redlands, CA 92373-4897",34.0365372,-117.2051741,7756.2345500619,b
296,San Antonio Regional Hospital,"999 San Bernardino Road, Upland, CA 91786-4920",34.1015661,-117.6378263,7778.7580404396,b
297,San Leandro Hospital,"13855 E. 14th Street, San Leandro, CA 94578",37.7122362,-122.1433524,7937.8159901686,b
298,Scripps Mercy Hospital of Chula Vista,"435 H Street, Chula Vista, CA 91910",32.633757,-117.083151,7775.7375947812,b
299,Sequoia Hospital,"170 Alameda De Las Pulgas, Redwood City, CA 94062-2799",37.4797381,-122.2547914,7949.2713091954,b
300,St. John's Regional Medical Center of Oxnard,"1600 N. Rose Avenue, Oxnard, CA 93030-3723",34.2166424,-119.1556484,7859.4805880916,b
301,St. Mary's Medical Center,"450 Stanyan Street, San Francisco, CA 94117-1079",37.7740462,-122.4536477,7952.0851571626,b
302,Stanford Health Care - ValleyCare,"5555 W. Las Positas Boulevard, Pleasanton, CA 94588-4000",37.6944052,-121.8802082,7924.8201546488,b
303,Sutter Amador Hospital,"200 Mission Boulevard, Jackson, CA 95642-2132",38.3504899,-120.7644312,7852.0461497655,b
304,"Sutter Medical Center, Sacramento","2825 Capitol Ave, Sacramento, CA 95816-5616",38.5708904,-121.4695318,7882.405265283,b
305,Sutter Roseville Medical Center,"1 Medical Plaza Dr, Roseville, CA 95661-3037",38.7662511,-121.2492234,7866.4958298894,b
306,Sutter Tracy Community Hospital,"1420 N. Tracy Boulevard, Tracy, CA 95376-3497",37.7441359,-121.4340134,7900.7916486,b
307,Torrance Memorial Medical Center,"3330 Lomita Boulevard, Torrance, CA 90505-5002",33.8119157,-118.3434945,7823.2209482665,b
308,University of California Davis Medical Center,"2315 Stockton Boulevard, Sacramento, CA 95817-2282",38.5549383,-121.4567508,7882.1529401718,b
309,University of California Ronald Reagan UCLA Medical Center,"757 Westwood Plaza, Los Angeles, CA 90095-8358",34.0664433,-118.4463136,7823.7819526322,b
310,USC Verdugo Hills Hospital,"1812 Verdugo Boulevard, Glendale, CA 91208-1409",34.2045351,-118.216049,7808.4152774073,b
311,Whittier Hospital Medical Center,"9080 Colima Road, Whittier, CA 90605",33.9502712,-118.0040225,7801.8285167267,b
312,Woodland Memorial Hospital,"1325 Cottonwood Street, Woodland, CA 95695-5199",38.664038,-121.79212,7896.3503329628,b
313,Adventist Health - Delano,"1401 Garces Highway, Delano, CA 93215-3690",35.7622854,-119.2392519,7831.4006535668,c
314,Adventist Health and Rideout,"726 4th Street, Marysville, CA 95901-5600",39.1381926,-121.5940156,7874.576109214,c
315,Adventist Health Sonora,"1000 Greenley Road, Sonora, CA 95370",37.977798,-120.371497,7840.8232560924,c
316,Adventist Health White Memorial,"1720 Cesar E. Chavez Avenue, Los Angeles, CA 90033-2481",34.0492579,-118.2172453,7811.5731972737,c
317,AHMC Anaheim Regional Medical Center,"1111 W. La Palma Avenue, Anaheim, CA 92801-2881",33.8481751,-117.9345264,7800.0103754626,c
318,AHMC Seton Medical Center,"1900 Sullivan Avenue, Daly City, CA 94015-2229",37.6799404,-122.4742007,7955.490392617,c
319,Alta Bates Summit Medical Center,"350 Hawthorne Avenue, Oakland, CA 94609",37.822057,-122.262747,7941.1693134899,c
320,Alvarado Hospital Medical Center,"6655 Alvarado Road, San Diego, CA 92120-5296",32.7766415,-117.0573188,7771.6623008574,c
321,Anaheim Global Medical Center,"1025 S. Anaheim Boulevard, Anaheim, CA 92805-5806",33.8196827,-117.9097961,7799.20625843,c
322,Antelope Valley Hospital,"1600 W. Avenue J, Lancaster, CA 93534-2894",34.6884634,-118.15843,7795.574457736,c
323,Bakersfield Heart Hospital,"3001 Sillect Avenue, Bakersfield, CA 93308-6337",35.3848085,-119.0399564,7828.7931719097,c
324,California Hospital Medical Center,"1401 S. Grand Avenue, Los Angeles, CA 90015-3010",34.0373956,-118.2657814,7814.4701450129,c
325,California Pacific Medical Center - Davies Campus,"45 Castro St, San Francisco, CA 94114",37.768847,-122.4354438,7951.2890805483,c
326,Cedars-Sinai Marina Del Rey Hospital,"4650 Lincoln Boulevard, Marina Del Rey, CA 90292-6360",33.9821449,-118.4392262,7825.0828931249,c
327,Cedars-Sinai Medical Center,"8700 Beverly Boulevard, Los Angeles, CA 90048-1865",34.075153,-118.3802766,7819.9905550323,c
328,Chinese Hospital,"845 Jackson Street, San Francisco, CA 94133-4899",37.7954715,-122.4091608,7949.2845066669,c
329,Clovis Community Medical Center,"2755 Herndon Avenue, Clovis, CA 93611-6800",36.8390429,-119.660354,7830.0537153447,c
330,COMMUNITY HOSPITAL OF SAN BERNARDINO,"1805 MEDICAL CENTER DRIVE, SAN BERNARDINO, CA 92411-1214",34.1314087,-117.3217772,7760.8261512153,c
331,Community Memorial Hospital,"147 N. Brent Street, Ventura, CA 93003-2854",34.2745632,-119.2579873,7863.8550854388,c
332,Corona Regional Medical Center,"800 S. Main Street, Corona, CA 92882-3420",33.8727795,-117.5683133,7779.3702801597,c
333,Dameron Hospital,"525 W. Acacia Street, Stockton, CA 95203-2484",37.9615265,-121.3019237,7888.7800719971,c
334,Desert Regional Medical Center,"1150 N. Indian Canyon Drive, Palm Springs, CA 92262-4872",33.8385169,-116.54408,7723.4964972571,c
335,Dignity Health St. Bernardine Medical Center,"2101 N. Waterman Avenue, San Bernardino, CA 92404-4836",34.1348371,-117.2769883,7758.299957933,c
336,Dominican Hospital,"1555 Soquel Drive, Santa Cruz, CA 95065-1794",36.9901663,-121.9836669,7947.3406232932,c
337,East Los Angeles Doctors Hospital,"4060 Whittier Boulevard, Los Angeles, CA 90023-2526",34.0237682,-118.1841496,7810.264569829,c
338,El Centro Regional Medical Center,"1415 Ross Avenue, El Centro, CA 92243-4398",32.7803961,-115.5683905,7688.0487548025,c
339,Emanate Health Foothill Presbyterian Hospital,"250 South Grand Avenue, Glendora, CA 91741-4218",34.1327654,-117.8713435,7790.9584500477,c
340,Emanate Health Inter-Community Hospital,"210 West San Bernardino Road, Covina, CA 91723-1901",34.0878738,-117.8935005,7793.055781946,c
341,Emanate Health Queen of the Valley Hospital,"1115 South Sunset Avenue, West Covina, CA 91790-3940",34.0642264,-117.9453122,7796.3631854217,c
342,Emanuel Medical Center,"825 Delbon Avenue, Turlock, CA 95382-2016",37.511639,-120.837996,7875.7517232098,c
343,Fountain Valley Regional Hospital and Medical Center,"17100 Euclid Street, Fountain Valley, CA 92708-4043",33.7150242,-117.9357865,7802.6813995416,c
344,Glendale Memorial Hospital and Health Center,"1420 S. Central Avenue, Glendale, CA 91204-2508",34.1281181,-118.2569119,7812.1761938894,c
345,Good Samaritan Hospital,"901 Olive Drive, Bakersfield, CA 93308-4144",35.4117079,-119.0395895,7828.2044935995,c
346,Good Samaritan Hospital of San Jose,"2425 Samaritan Drive, San Jose, CA 95124-3997",37.2520715,-121.9463305,7939.0384587902,c
347,Greater El Monte Community Hospital,"1701 Santa Anita Avenue, South El Monte, CA 91733-3411",34.0481521,-118.043372,7802.0597095764,c
348,Hi-Desert Medical Center,"6601 White Feather Road, Joshua Tree, CA 92252-6601",34.1326967,-116.2762479,7703.275403181,c
349,Highland Hospital,"1411 E. 31st Street, Oakland, CA 94602",37.7995621,-122.2329473,7940.2128970261,c
350,Hollywood Presbyterian Medical Center,"1300 N. Vermont Avenue, Los Angeles, CA 90027-0069",34.0962209,-118.2905784,7814.6563670271,c
351,Huntington Beach Hospital,"17772 Beach Boulevard, Huntington Beach, CA 92647-6819",33.70364,-117.986656,7805.7081466132,c
352,Inland Valley Medical Center,"36485 Inland Valley Drive, Wildomar, CA 92595-9700",33.5916679,-117.2375905,7766.4823312619,c
353,JFK Memorial Hospital,"47111 Monroe Street, Indio, CA 92201-6799",33.7062168,-116.2354774,7708.8415575605,c
354,Kaiser Foundation Hospital - South Sacramento,"6600 Bruceville Road, Sacramento, CA 95823-4671",38.4699104,-121.4216412,7882.4690424266,c
355,Kern Medical Center,"1700 Mount Vernon Avenue, Bakersfield, CA 93306-4018",35.3828044,-118.9700927,7825.088538245,c
356,Lakewood Regional Medical Center,"3700 E South Street, Lakewood, CA 90712-1498",33.8599375,-118.1486551,7811.5575626511,c
357,Lompoc Valley Medical Center,"1515 E. Ocean Avenue, Lompoc, CA 93436-7092",34.6411375,-120.4395191,7920.0519761525,c
358,Long Beach Memorial Medical Center,"2801 Atlantic Ave., Long Beach, CA 90806-1701",33.8083605,-118.1873236,7814.7023779919,c
359,Los Alamitos Medical Center,"3751 Katella Avenue, Los Alamitos, CA 90720-3164",33.8043758,-118.0671158,7808.1662854722,c
360,Los Angeles County - Harbor UCLA Medical Center,"1000 W. Carson Street, Torrance, CA 90509",33.8297109,-118.2949821,7820.2005677653,c
361,Los Angeles County University of Southern California Medical Center,"2051 Marengo St., Los Angeles, CA 90033-1029",34.059442,-118.2081017,7810.8694929697,c
362,Mad River Community Hospital,"3800 Janes Road, Arcata, CA 95521-4788",40.8963361,-124.0916707,7950.0472984765,c
363,Madera Community Hospital,"1250 E. Almond Avenue, Madera, CA 93637-5696",36.9440246,-120.0443662,7847.7528974599,c
364,MarinHealth Medical Center,"250 Bon Air Road, Greenbrae, CA 94904-1784",37.9474108,-122.5358908,7951.9023903598,c
365,Memorial Hospital Los Banos,"520 West I St, Los Banos, CA 93635-4211",37.0640934,-120.8591356,7887.3651559963,c
366,Memorial Hospital of Gardena,"1145 W. Redondo Beach Boulevard, Gardena, CA 90247-3528",33.8929624,-118.2948029,7818.9351923337,c
367,Memorial Medical Center,"1700 Coffee Road, Modesto, CA 95355-2869",37.6687592,-120.9737865,7879.011186202,c
368,Menifee Global Medical Center,"28400 McCall Boulevard, Sun City, CA 92585-9537",33.7194657,-117.1645046,7760.0212456398,c
369,Mercy Hospital - Downtown,"2215 Truxtun Avenue, Bakersfield, CA 93301",35.3731773,-119.0271665,7828.3531198187,c
370,Mercy Hospital - Southwest,"400 Old River Road, Bakersfield, CA 93311",35.3511237,-119.1124137,7833.3920966921,c
371,Mercy Hospital of Folsom,"1650 Creekside Drive, Folsom, CA 95630-3405",38.6701979,-121.1460932,7863.6476234431,c
372,Mercy Medical Center,"333 Mercy Avenue, Merced, CA 95340-8319",37.339977,-120.4672958,7860.6347252946,c
373,Methodist Hospital of Southern California,"300 W. Huntington Drive, Arcadia, CA 91007-3473",34.1344524,-118.0417643,7800.2657845,c
374,Mission Community Hospital,"14850 Roscoe Boulevard, Panorama City, CA 91402",34.2209059,-118.4567848,7821.2496078346,c
375,Montclair Hospital Medical Center,"5000 San Bernardino Street, Montclair, CA 91763-2326",34.0787027,-117.6959434,7782.3938039727,c
376,Monterey Park Hospital,"900 S. Atlantic Boulevard, Monterey Park, CA 91754-4780",34.049413,-118.1383146,7807.2422226,c
377,O'Connor Hospital,"2105 Forest Avenue, San Jose, CA 95128-1471",37.3277552,-121.9383789,7936.7818648375,c
378,Oroville Hospital,"2767 Olive Highway, Oroville, CA 95966-6118",39.5062597,-121.5410928,7862.7138992493,c
379,PIH Health Good Samaritan Hospital,"1225 Wilshire Boulevard, Los Angeles, CA 90017-2395",34.0541988,-118.2650593,7814.0959341449,c
380,Placentia-Linda Hospital,"1301 N. Rose Drive, Placentia, CA 92870-3899",33.887072,-117.8434267,7794.2374839229,c
381,Pomona Valley Hospital Medical Center,"1798 N. Garey Avenue, Pomona, CA 91767-2918",34.0770077,-117.7514976,7785.476536438,c
382,Providence Cedars-Sinai Tarzana Medical Center,"18321 Clark Street, Tarzana, CA 91356-3521",34.1704136,-118.5322725,7826.393641885,c
383,Providence Holy Cross Medical Center,"15031 Rinaldi Street, Mission Hills, CA 91345-1285",34.280154,-118.460335,7820.2491414911,c
384,Providence Little Company of Mary Medical Center San Pedro,"1300 W. Seventh Street, San Pedro, CA 90732-3505",33.7383615,-118.3050431,7822.5643022408,c
385,Providence Saint John's Health Center,"2121 Santa Monica Boulevard, Santa Monica, CA 90404-2303",34.0307388,-118.4796069,7826.3221592869,c
386,Providence Saint Joseph Medical Center,"501 South Buena Vista Street, Burbank, CA 91505-4818",34.1558174,-118.3281063,7815.5198494302,c
387,Rancho Springs Medical Center,"25500 Medical Center Drive, Murrieta, CA 92562-5965",33.5589878,-117.1839316,7764.1288888544,c
388,Regional Medical Center of San Jose,"225 N. Jackson Avenue, San Jose, CA 95116-1691",37.3623125,-121.8493151,7931.3619433553,c
389,Riverside Community Hospital,"4445 Magnolia Avenue, Riverside, CA 92501-4199",33.9767808,-117.3816002,7767.0876794372,c
390,Riverside University Health System - Medical Center,"26520 Cactus Avenue, Moreno Valley, CA 92555-3911",33.9121777,-117.1960044,7758.1013456333,c
391,Saint Agnes Medical Center,"1303 E. Herndon Avenue, Fresno, CA 93720-3309",36.8352022,-119.7655278,7835.642105261,c
392,Saint Francis Memorial Hospital,"900 Hyde Street, San Francisco, CA 94109-4899",37.7896472,-122.4166422,7949.8110858646,c
393,San Gabriel Valley Medical Center,"438 W. Las Tunas Drive, San Gabriel, CA 91776-1216",34.1007416,-118.1058755,7804.4465600885,c
394,San Gorgonio Memorial Hospital,"600 N. Highland Springs Avenue, Banning, CA 92220-3046",33.9317494,-116.9459031,7743.9418503176,c
395,San Ramon Regional Medical Center,"6001 Norris Canyon Road, San Ramon, CA 94583-5400",37.775892,-121.958214,7926.7972772388,c
396,Santa Rosa Memorial Hospital,"1165 Montgomery Drive, Santa Rosa, CA 95405-4897",38.4437611,-122.701141,7947.6269964674,c
397,Sierra Nevada Memorial Hospital,"155 Glasson Way, Grass Valley, CA 95945-5723",39.2281029,-121.0468913,7844.9980045863,c
398,Sierra View Medical Center,"465 W. Putnam Avenue, Porterville, CA 93257-3320",36.069563,-119.027485,7813.5407424999,c
399,South Bay Medical Center,"25825 South Vermont Avenue, Harbor City, CA 90710-3599",33.7899325,-118.2947645,7820.9772220264,c
400,South Coast Global Medical Center,"2701 S. Bristol Street, Santa Ana, CA 92704-6201",33.7110583,-117.8851902,7799.9689410081,c
401,St. Francis Medical Center,"3630 E. Imperial Highway, Lynwood, CA 90262-2636",33.930826,-118.203228,7813.1544649625,c
402,St. Joseph Hospital of Eureka,"2700 Dolbeer Street, Eureka, CA 95501-4799",40.7839228,-124.1422119,7955.6086110978,c
403,St. Louise Regional Hospital,"9400 No Name Uno, Gilroy, CA 95020-3528",37.0365453,-121.5713901,7924.9101804855,c
404,St. Mary Medical Center of Long Beach,"1050 Linden Avenue, Long Beach, CA 90813-3393",33.7797822,-118.1863138,7815.2108281748,c
405,St. Rose Hospital,"27200 Calaroga Avenue, Hayward, CA 94545-4383",37.6337041,-122.087952,7936.9306712998,c
406,Sutter Davis Hospital,"2000 Sutter Place, Davis, CA 95616-6201",38.5625729,-121.7711666,7897.8234312372,c
407,Sutter East Bay Hospitals dba Alta Bates Summit Medical Center Alta Bates Campus,"2450 Ashby Avenue, Berkeley, CA 94705",37.855928,-122.257304,7940.0473791556,c
408,Sutter Solano Medical Center,"300 Hospital Drive, Vallejo, CA 94589-2517",38.131156,-122.2374074,7932.1536141508,c
409,Temecula Valley Hospital,"31700 Temecula Parkway, Temecula, CA 92592-5896",33.4811362,-117.1060989,7761.280638692,c
410,Tri-City Medical Center,"4002 Vista Way, Oceanside, CA 92056-4506",33.1851545,-117.2902595,7777.0683024146,c
411,Valley Presbyterian Hospital,"15107 Vanowen Street, Van Nuys, CA 91405",34.194945,-118.46319,7822.1225460466,c
412,Victor Valley Global Medical Center,"15248 Eleventh Street, Victorville, CA 92395",34.528167,-117.293911,7751.6361846145,c
413,Washington Hospital Healthcare System,"2000 Mowry Avenue, Fremont, CA 94538-1746",37.55726,-121.9797604,7933.2809309985,c
414,Watsonville Community Hospital,"75 Nielson Street, Watsonville, CA 95076-2468",36.9271746,-121.7930016,7939.0064237663,c
415,West Anaheim Medical Center,"3033 W. Orange Avenue, Anaheim, CA 92804",33.825427,-117.9947617,7803.7709039924,c
416,West Hills Hospital and Medical Center,"7300 Medical Center Drive, West Hills, CA 91307-1901",34.2029255,-118.6287791,7831.0101588122,c
417,West Los Angeles Medical Center,"6041 Cadillac Avenue, Los Angeles, CA 90034-1702",34.0383466,-118.3759001,7820.48711793,c
418,Woodland Hills Medical Center,"5601 De Soto Avenue, Woodland Hills, CA 91367",34.1701721,-118.5902842,7829.5697500929,c
419,Zuckerberg San Francisco General Hospital and Trauma Center,"1001 Potrero Avenue, San Francisco, CA 94110-3594",37.7558047,-122.4044432,7950.037623362,c
420,Beverly Hospital,"309 W. Beverly Boulevard, Montebello, CA 90640-4308",34.015015,-118.100636,7805.856301851,d
421,Chapman Global Medical Center,"2601 E. Chapman Avenue, Orange, CA 92869-3206",33.788633,-117.8258852,7795.190181771,d
422,Coast Plaza Hospital,"13100 Studebaker Road, Norwalk, CA 90650-2531",33.9127726,-118.0988257,7807.7761325295,d
423,Community Hospital of Huntington Park,"2623 E. Slauson Avenue, Huntington Park, CA 90255-2900",33.9896228,-118.2241554,7813.1370147507,d
424,Community Regional Medical Center,"2823 Fresno Street, Fresno, CA 93721-1324",36.7428148,-119.7840085,7838.6783739007,d
425,Doctors Hospital of Manteca,"1205 E. North Street, Manteca, CA 95336-4900",37.80155,-121.197502,7887.3032409973,d
426,Hemet Global Medical Center,"1117 E. Devonshire Avenue, Hemet, CA 92543-3083",33.7501053,-116.9601344,7748.1469436119,d
427,Los Angeles Community Hospital,"4081 E. Olympic Boulevard, Los Angeles, CA 90023-3330",34.0192887,-118.1866586,7810.4910739235,d
428,Mercy Medical Center of Redding,"2175 Rosaline Avenue, Redding, CA 96001",40.57182,-122.395252,7877.2115063695,d
429,Orange County Global Medical Center,"1001 N. Tustin Avenue, Santa Ana, CA 92705-3577",33.7542839,-117.8328006,7796.2395021913,d
430,San Mateo Medical Center,"222 W. 39th Avenue, San Mateo, CA 94403-4398",37.5312682,-122.2992982,7950.2702736741,d
431,Santa Clara Valley Medical Center,"751 S. Bascom Avenue, San Jose, CA 95128-2604",37.3128688,-121.9328811,7936.8628646663,d
432,Santa Paula Hospital,"825 N 10th St, Santa Paula, CA 93061",34.3655106,-119.0651899,7851.4751357387,d
433,Southern California Hospital at Culver City,"3828 Delmas Terrace, Culver City, CA 90232-6806",34.0232001,-118.3969128,7821.941667728,d
434,Southern California Hospital at Hollywood,"6245 De Longpre Avenue, Los Angeles, CA 90028",34.0964254,-118.3252367,7816.5505488189,d
435,St Mary Medical Center,"18300 Highway 18, Apple Valley, CA 92307-2206",34.5418476,-117.2655636,7749.8223887038,d
436,Sutter Coast Hospital,"800 East Washington Blvd., Crescent City, CA 95531-8359",41.7736843,-124.194008,7930.115342005,d
437,Sutter Delta Medical Center,"3901 Lone Tree Way, Antioch, CA 94509-6253",37.9825884,-121.8029543,7913.7928430707,d
438,Ventura County Medical Center,"300 Hillmont Avenue, Ventura, CA 93003-3099",34.2771994,-119.2529832,7863.5278340661,d
439,Barstow Community Hospital,"820 East Mountain View Street, Barstow, CA 92311-3004",34.892431,-117.017066,7729.487408737,f
440,Henry Mayo Newhall Hospital,"23845 McBean Parkway, Valencia, CA 91355-2083",34.4214827,-118.5632206,7822.9985710016,f
441,Pacifica Hospital of the Valley,"9449 San Fernando Road, Sun Valley, CA 91352-1421",34.2405259,-118.3960912,7817.5381463383,f
442,Pioneers Memorial Hospital,"207 W. Legion Road, Brawley, CA 92227-7780",32.9591125,-115.5539066,7684.1328704961,f
443,San Joaquin General Hospital,"500 W. Hospital Road, French Camp, CA 95231-9693",37.8867135,-121.2826314,7889.6039958681,f
444,College Medical Center,"2776 Pacific Ave, Long Beach, CA 90806",33.8069502,-118.1928532,7815.0344258869,g
445,Sonoma Valley Hospital,"347 Andrieux Street, Sonoma, CA 95476-6811",38.2881092,-122.4651441,7939.7090360439,g
446,Charlotte Hungerford Hospital,"540 Litchfield Street, Torrington, CT 06790-0988",41.7915265,-73.1338228,5354.9640260652,a
447,Day Kimball Hospital,"320 Pomfret Street, Putnam, CT 06260-0901",41.909204,-71.914523,5295.225674792,a
448,Hartford Hospital,"80 Seymour Street, Hartford, CT 06102-5037",41.7541227,-72.6791793,5331.4957345246,a
449,Johnson Memorial Hospital,"201 Chestnut Hill Road, Stafford Springs, CT 06076-4005",41.9778443,-72.3919664,5320.2097592999,a
450,Middlesex Hospital,"28 Crescent Street, Middletown, CT 06457-3650",41.5544714,-72.6470639,5327.0701730371,a
451,Stamford Health,"1 Hospital Plaza, Stamford, CT 06904-9317",41.0558536,-73.5538648,5366.4407035919,a
452,The Hospital of Central Connecticut,"100 Grand Street, New Britain, CT 06052-2017",41.6610409,-72.7869415,5335.6364228863,a
453,The William W. Backus Hospital,"326 Washington Street, Norwich, CT 06360-2733",41.5430114,-72.0879807,5298.6204486024,a
454,"University of Connecticut Health Center, John Dempsey Hospital","263 Farmington Avenue, Farmington, CT 06032-3802",41.7304054,-72.7906181,5336.7893402671,a
455,Bridgeport Hospital,"267 Grant Street, Bridgeport, CT 06610-2805",41.1887903,-73.1658783,5348.3981796697,b
456,Bridgeport Hospital Milford Campus,"300 Seaside Avenue, Milford, CT 06460-4603",41.2165182,-73.0653002,5343.6469712759,b
457,Bristol Health,"41 Brewster Road, Bristol, CT 06010",41.6757272,-72.936043,5343.3786296606,b
458,Danbury Hospital,"24 Hospital Avenue, Danbury, CT 06810-6099",41.4050857,-73.446289,5365.5779584786,b
459,Griffin Hospital,"130 Division Street, Derby, CT 06418-1326",41.3352614,-73.0892349,5346.4799046376,b
460,MidState Medical Center,"435 Lewis Avenue, Meriden, CT 06451-2101",41.5493063,-72.8011451,5334.8003851658,b
461,St. Francis Hospital & Medical Center,"114 Woodland Street, Hartford, CT 06105-1208",41.7749634,-72.6984118,5332.7588406858,b
462,"St. Vincent's Medical Center Holdings, Inc, DBA","2800 Main Street, Bridgeport, CT 06606-4292",41.201187,-73.2016535,5350.3894925424,b
463,Windham Community Memorial Hospital,"112 Mansfield Avenue, Willimantic, CT 06226-2040",41.7173432,-72.2259329,5308.1056332108,b
464,Greenwich Hospital,"5 Perryridge Road, Greenwich, CT 06830-6364",41.0345475,-73.6302569,5370.0694227132,c
465,Lawrence & Memorial Hospital,"365 Montauk Avenue, New London, CT 06320-4769",41.3363078,-72.1056047,5296.5271662593,c
466,Manchester Memorial Hospital,"71 Haynes Street, Manchester, CT 06040-4188",41.7818795,-72.5255571,5324.1382950028,c
467,New Milford Hospital,"21 Elm Street, New Milford, CT 06776-2993",41.5807756,-73.4100101,5366.0838847732,c
468,Norwalk Hospital,"34 Maple Street, Norwalk, CT 06850-3894",41.1111249,-73.4222417,5360.4428607733,c
469,Saint Mary's Hospital,"56 Franklin Street, Waterbury, CT 06712-1281",41.5527881,-73.0369765,5346.7963462412,c
470,Sharon Hospital,"50 Hospital Hill Road, Sharon, CT 06069-0789",41.8810518,-73.4814997,5373.7264677352,c
471,Waterbury Hospital,"64 Robbins Street, Waterbury, CT 06708-2600",41.5594542,-73.0594815,5348.0280633493,c
472,Yale New Haven Hospital - Saint Raphael Campus,"1450 Chapel Street, New Haven, CT 06511-1450",41.3102538,-72.9431532,5338.7082296594,c
473,Yale-New Haven Hospital,"20 York Street, New Haven, CT 06510-3202",41.3045436,-72.9357954,5338.2556410818,c
474,Rockville General Hospital,"31 Union St, Vernon, CT 06066",41.8661355,-72.4504652,5321.5535787524,g
475,Sibley Memorial Hospital,"5255 Loughboro Road NW, Washington, DC 20016-2695",38.9365582,-77.1092589,5527.6715750992,b
476,George Washington University Hospital,"900 23rd Street NW, Washington, DC 20037-2377",38.9013368,-77.0507854,5524.2133996787,c
477,MedStar Georgetown University Hospital,"3800 Reservoir Road NW, Washington, DC 20007-2197",38.9114532,-77.0752748,5525.6163578908,c
478,MedStar Washington Hospital Center,"110 Irving Street NW, Washington, DC 20010-2975",38.9295004,-77.0144985,5522.5613727059,c
479,Howard University Hospital,"2041 Georgia Avenue NW, Washington, DC 20060",38.9177,-77.021928,5522.8397239399,f
480,United Medical Center,"1310 Southern Avenue SE, Washington, DC 20032-4699",38.8359393,-76.9849936,5520.0638181766,g
481,Bayhealth Hospital Sussex Campus,"100 Wellness Way, Milford, DE 19963",38.8868357,-75.3911438,5435.8574339474,a
482,Beebe Healthcare,"424 Savannah Road, Lewes, DE 19958-0226",38.7720274,-75.1438834,5421.4362511358,b
483,Bayhealth Kent Campus,"640 South State Street, Dover, DE 19901-3530",39.1512959,-75.5236202,5445.8206604717,c
484,Christiana Care Health System - Christiana Hospital,"4755 Ogletown-Stanton Road, Newark, DE 19718-0002",39.6878859,-75.668995,5459.4456353017,c
485,Christiana Care Health System - Wilmington Hospital,"501 W. 14th St., Wilmington, DE 19801",39.7512591,-75.5502188,5453.9251523546,c
486,Saint Francis Hospital,"701 North Clayton Street, Wilmington, DE 19805-0500",39.7501741,-75.5670506,5454.7951741263,c
487,TidalHealth Nanticoke,"801 Middleford Road, Seaford, DE 19973-3698",38.6422067,-75.6046615,5444.5099457505,c
488,East Georgia Regional Medical Center,"1499 Fair Road, Statesboro, GA 30458",32.414409,-81.770256,5738.5745917589,a
489,Emanuel Medical Center,"117 Kite Road, Swainsboro, GA 30401-3231",32.5924173,-82.3476473,5773.0429451795,a
490,Emory Johns Creek Hospital,"6325 Hospital Parkway, Johns Creek, GA 30097",34.0667005,-84.1764319,5884.979167302,a
491,Fairview Park Hospital,"200 Industrial Boulevard, Dublin, GA 31021-2997",32.5322896,-82.9504767,5807.7732702624,a
492,Floyd Medical Center,"304 Turner McCall Boulevard SW, Rome, GA 30165-2734",34.2594562,-85.1793453,5942.9308665324,a
493,Grady General Hospital,"1155 5th Street SE, Cairo, GA 39828-0360",30.8639473,-84.1991393,5874.2291701839,a
494,Memorial Satilla Health,"1900 Tebeau Street, Waycross, GA 31501-5246",31.2267292,-82.3482876,5766.3966291336,a
495,Perry Hospital,"1120 Morningside Drive, Perry, GA 31069-2906",32.45961,-83.709672,5851.6114909951,a
496,Phoebe Putney Memorial Hospital,"417 Third Ave, Albany, GA 31701-1828",31.5901236,-84.1576437,5874.4293091108,a
497,Piedmont Athens Regional Medical Center,"1199 Prince Avenue, Athens, GA 30606-2793",33.9611872,-83.3982944,5840.0555822625,a
498,Piedmont Augusta Hospital,"1350 Walton Way, Augusta, GA 30901-2629",33.4707204,-81.9830717,5756.5241096236,a
499,Piedmont Augusta Hospital Summerville Campus,"2260 Wrightsboro Road, Augusta, GA 30904-4726",33.465676,-82.018268,5758.5196317563,a
500,Piedmont Columbus Regional Northside,"100 Frist Court, Columbus, GA 31909",32.5345231,-84.9511663,5924.1281840649,a
501,Piedmont Macon Medical Center,"350 HOSPITAL DR, Macon, GA 31217-3871",32.8472566,-83.6179294,5847.8861152263,a
502,Piedmont Macon North Hospital,"400 CHARTER BLVD, Macon, GA 31210-4853",32.8715199,-83.6945317,5852.424669627,a
503,Piedmont Mountainside Hospital,"1266 Highway 515 S., Jasper, GA 30143",34.4461105,-84.4471314,5901.8804869971,a
504,Piedmont Newnan Hospital,"745 Poplar Road, Newnan, GA 30265",33.3593908,-84.7548528,5915.5486091361,a
505,Southeast Georgia Health System - Camden Campus,"2000 Dan Proctor Drive, St. Marys, GA 31558-3810",30.7808251,-81.6145249,5720.8283901364,a
506,Wellstar Paulding Hospital,"2518 Jimmy Lee Smith Parkway, Hiram, GA 30141",33.9024313,-84.7911395,5919.5318398335,a
507,AdventHealth Gordon,"1035 Red Bud Road, Calhoun, GA 30701-2082",34.5101323,-84.9262881,5929.3650708526,b
508,AdventHealth Redmond,"501 Redmond Road NW, Rome, GA 30165-1415",34.2769931,-85.1949096,5943.8759179709,b
509,Atrium Health Navicent Baldwin,"821 North Cobb Street, Milledgeville, GA 31061-2351",33.0896828,-83.2453926,5827.381987602,b
510,Coffee Regional Medical Center,"1101 Ocilla Road, Douglas, GA 31533-3617",31.509617,-82.8634494,5798.0350211441,b
511,Colquitt Regional Medical Center,"3131 South Main ST, Moultrie, GA 31768-6701",31.1259475,-83.7830887,5850.6046191838,b
512,Doctors Hospital of Augusta,"3651 WHEELER RD, Augusta, GA 30909-6521",33.48297,-82.0901567,5762.7420866311,b
513,Dorminy Medical Center,"200 Perry House Road, Fitzgerald, GA 31750",31.697967,-83.259581,5822.1256680384,b
514,Emory Hillandale Hospital,"2801 DeKalb Medical Parkway, Lithonia, GA 30058",33.7036504,-84.1469748,5881.8647587088,b
515,Emory St. Joseph's Hospital,"5665 Peachtree Dunwoody Road, Atlanta, GA 30342-1764",33.9085258,-84.3495776,5894.2696872621,b
516,Memorial Health University Medical Center,"4700 Waters Avenue, Savannah, GA 31404",32.0318516,-81.0915792,5696.9177165354,b
517,Memorial Hospital and Manor,"1500 East Shotwell Street, Bainbridge, GA 39819-4256",30.9029469,-84.5522362,5895.2750034962,b
518,Phoebe Sumter Medical Center,"126 Highway 280 West, Americus, GA 31719",32.0666637,-84.2554928,5881.924079868,b
519,Piedmont Cartersville Medical Center,"960 Joe Frank Harris Parkway, Cartersville, GA 30120-2129",34.2007934,-84.7953129,5920.8208862188,b
520,Piedmont Columbus Regional Midtown,"710 Center Street, Columbus, GA 31901-1527",32.480522,-84.9816665,5925.7268863634,b
521,Piedmont Eastside Medical Center,"1700 Medical Way, Snellville, GA 30078-2195",33.8775615,-84.0218471,5875.3832222648,b
522,Piedmont Fayette Hospital,"1255 Highway 54 W., Fayetteville, GA 30214",33.4523485,-84.507658,5901.6423790545,b
523,Piedmont Hospital,"1968 Peachtree Road NW, Atlanta, GA 30309-1231",33.8091054,-84.393287,5896.3970613654,b
524,Piedmont Rockdale Hospital,"1412 Milstead Avenue NE, Conyers, GA 30012-3877",33.680723,-84.002,5873.4536191446,b
525,St. Mary's Sacred Heart Hospital,"367 Clear Creek Parkway, Lavonia, GA 30553",34.4397599,-83.1323882,5827.0843357985,b
526,Tift Regional Medical Center,"901 East 18th Street, Tifton, GA 31794-3648",31.4704168,-83.4913721,5834.788191866,b
527,Upson Regional Medical Center,"801 West Gordon Street, Thomaston, GA 30286-2831",32.8862947,-84.3361834,5889.6531175265,b
528,Wellstar Cobb Hospital,"3950 Austell Road, Austell, GA 30106-1121",33.856383,-84.6044634,5908.67414249,b
529,Wellstar Douglas Hospital,"8954 Hospital Drive, Douglasville, GA 30134-2282",33.739384,-84.731108,5915.5164307988,b
530,Wellstar Kennestone Hospital,"677 Church Street, Marietta, GA 30060-1148",33.9695872,-84.5516065,5906.0613425597,b
531,"Atrium Health Navicent, Medical Center","777 Hemlock Street, Macon, GA 31201-2155",32.8338806,-83.6353193,5848.8378444862,c
532,Augusta University Medical Center,"1120 15th Street, Augusta, GA 30912-5563",33.4706236,-81.9899149,5756.9168004817,c
533,Candler Hospital,"5353 Reynolds Street, Savannah, GA 31405-6013",32.027973,-81.1002076,5697.3991782738,c
534,Crisp Regional Hospital,"902 North Seventh Street, Cordele, GA 31015-5007",31.9774769,-83.7813708,5853.8521541953,c
535,Emory Decatur Hospital,"2701 N. Decatur Road, Decatur, GA 30033-5995",33.7907835,-84.2828266,5889.9951399094,c
536,Emory University Hospital,"1364 Clifton Road NE, Atlanta, GA 30322-1102",33.7921115,-84.3221599,5892.2552116154,c
537,Emory University Hospital Midtown,"550 Peachtree Street NE, Atlanta, GA 30308",33.7680976,-84.386158,5895.8337729098,c
538,Fannin Regional Hospital,"2855 Old Highway 5 North, Blue Ridge, GA 30513-6248",34.9177348,-84.3743296,5899.5624018676,c
539,Habersham Medical Center,"541 Historic Highway 441 North, Demorest, GA 30535-4528",34.5810438,-83.5370886,5850.7191393894,c
540,Hamilton Medical Center,"1200 Memorial Drive, Dalton, GA 30720-2529",34.7896877,-84.9847419,5933.6513074752,c
541,Houston Medical Center,"1601 Watson Boulevard, Warner Robins, GA 31093-3431",32.6167516,-83.630652,5847.663749636,c
542,John D. Archbold Memorial Hospital,"915 Gordon Avenue, Thomasville, GA 31792-6614",30.825069,-83.971996,5860.6319741438,c
543,Memorial Health Meadows Hospital,"One Meadows Parkway, Vidalia, GA 30474-8915",32.2090345,-82.3758517,5772.7854584824,c
544,North Fulton Hospital,"3000 Hospital Boulevard, Roswell, GA 30076-3899",34.063173,-84.3198938,5893.1633533965,c
545,Northeast Georgia Medical Center,"743 Spring Street, Gainesville, GA 30501-3899",34.3043586,-83.8172049,5865.4526485707,c
546,Northeast Georgia Medical Center Barrow,"316 N. Broad Street, Winder, GA 30680-2150",34.0080226,-83.7077061,5857.950059188,c
547,Northeast Georgia Medical Center Braselton,"1400 River Place, Braselton, GA 30517-5600",34.1191181,-83.8386845,5865.900887466,c
548,Northside Hospital Atlanta,"1000 Johnson Ferry Road NE, Atlanta, GA 30342-1611",33.9091884,-84.3540514,5894.5283455269,c
549,Northside Hospital Cherokee,"450 Northside Cherokee Blvd, Canton, GA 30115-8015",34.2284137,-84.4641397,5902.0270501538,c
550,Northside Hospital Forsyth,"1200 Northside Forsyth Drive, Cumming, GA 30041-7659",34.1786691,-84.1403877,5883.3642473315,c
551,Piedmont Henry Hospital,"1133 Eagle's Landing Parkway, Stockbridge, GA 30281-5099",33.510351,-84.2271743,5885.720933245,c
552,Piedmont Newton Hospital,"5126 Hospital Drive, Covington, GA 30014-2567",33.6013057,-83.8480341,5864.2900408329,c
553,Piedmont Walton,"2151 West Spring Street, Monroe, GA 30655-2140",33.7989051,-83.7502902,5859.5034573867,c
554,South Georgia Medical Center,"2501 North Patterson Street, Valdosta, GA 31602-1735",30.8625,-83.2863,5820.1718740609,c
555,Southeast Georgia Health System - Brunswick Campus,"2415 Parkwood Drive, Brunswick, GA 31520-4252",31.1757277,-81.4850779,5715.2631778027,c
556,Southern Regional Medical Center,"11 Upper Riverdale Road SW, Riverdale, GA 30274-2615",33.5793831,-84.3896726,5895.3262322556,c
557,St. Francis-Emory Healthcare,"2122 Manchester Expressway, Columbus, GA 31904",32.5067896,-84.9593342,5924.5126514534,c
558,St. Joseph's Hospital,"11705 Mercy Boulevard, Savannah, GA 31419-1791",31.98515,-81.154752,5700.3399549644,c
559,"St. Mary's Health Care System, Inc.","1230 Baxter Street, Athens, GA 30606",33.947691,-83.405571,5840.4116125356,c
560,Stephens County Hospital,"163 Hospital Drive, Toccoa, GA 30577-9700",34.593676,-83.3480309,5840.0453517359,c
561,Tanner Medical Center of Carrollton,"705 Dixie Street, Carrollton, GA 30117-3818",33.5697787,-85.0744284,5934.6581543231,c
562,Tanner Medical Center of Villa Rica,"601 Dallas Highway, Villa Rica, GA 30180-1202",33.7444521,-84.9175329,5926.230912015,c
563,Union General Hospital,"35 Hospital Road, Blairsville, GA 30512-3139",34.8858798,-83.9623541,5876.1299944,c
564,Wayne Memorial Hospital,"865 S. First Street, Jesup, GA 31545",31.6020007,-81.8917178,5741.4115227056,c
565,Wellstar Atlanta Medical Center Downtown,"303 Parkway Drive NE, Atlanta, GA 30312-1212",33.7629065,-84.3729609,5895.0573298239,c
566,WellStar Spalding Regional Hospital,"601 S. Eighth Street, Griffin, GA 30224-4294",33.2391197,-84.2673631,5886.9991811578,c
567,Wellstar West Georgia Medical Center,"1514 Vernon Road, Lagrange, GA 30240-4199",33.032552,-85.0586022,5931.9882118695,c
568,Atlanta Medical Center South Campus,"1170 Cleveland Avenue, East Point, GA 30344-3665",33.6803899,-84.4269735,5897.846712751,d
569,Grady Memorial Hospital Corporation,"80 Jesse Hill Jr. Drive SE, Atlanta, GA 30303-3022",33.7516709,-84.3820793,5895.5379190454,d
570,Northside Hospital Duluth,"3620 Howell Ferry Road, Duluth, GA 30096",34.0011574,-84.1638617,5884.0022754447,d
571,Northside Hospital Gwinnett,"1000 Medical Center Boulevard, Lawrenceville, GA 30046-7694",33.9635082,-84.0176866,5875.4916354579,d
572,Dodge County Hospital,"901 Griffin Avenue, Eastman, GA 31023-2223",32.1855837,-83.1788277,5819.5156749961,g
573,Donalsonville Hospital,"102 Hospital Circle, Donalsonville, GA 39845-1199",31.0509415,-84.8816162,5915.250165399,g
574,Taylor Regional Hospital,"222 Perry Highway, Hawkinsville, GA 31036",32.2973395,-83.4852746,5837.8693420295,g
575,Allen Hospital,"1825 Logan Avenue, Waterloo, IA 50703-1916",42.5266507,-92.3395639,6337.2079181752,a
576,Genesis Medical Center-Davenport,"1227 E. Rusholme Street, Davenport, IA 52803-2498",41.5416972,-90.5565222,6246.8786882253,b
577,Lakes Regional Healthcare,"2301 Hwy 71 South, Spirit Lake, IA 51360-6810",43.3826179,-95.1288898,6475.4767020075,b
578,UnityPoint Health - Trinity Muscatine,"1518 Mulberry Avenue, Muscatine, IA 52761-3499",41.433172,-91.0545219,6272.7215260788,b
579,Broadlawns Medical Center,"1801 Hickman Road, Des Moines, IA 50314-1597",41.616506,-93.6421497,6406.1689453051,c
580,CHI Health Mercy Council Bluffs,"800 Mercy Drive, Council Bluffs, IA 51503-3128",41.2686369,-95.8394748,6521.1138292037,c
581,Iowa Lutheran Hospital,"700 E. University Avenue, Des Moines, IA 50316-2392",41.6021918,-93.6097994,6404.5408545011,c
582,Iowa Methodist Medical Center,"1200 Pleasant Street, Des Moines, IA 50309-9976",41.5892197,-93.6335758,6405.8058960457,c
583,Mary Greeley Medical Center,"1111 Duff Avenue, Ames, IA 50010-5745",42.0327263,-93.6117406,6403.390287844,c
584,Mercy Iowa City,"500 E. Market Street, Iowa City, IA 52245-2689",41.6641176,-91.528466,6296.9861170704,c
585,Mercy Medical Center,"701 10th Street SE, Cedar Rapids, IA 52403-1292",41.9784474,-91.6559663,6303.147221674,c
586,MercyOne Clinton Medical Center - North Campus,"1410 N. Fourth Street, Clinton, IA 52732-2940",41.8614111,-90.1892084,6227.8358141944,c
587,MercyOne Des Moines Medical Center,"1111 6th Avenue, Des Moines, IA 50314-2611",41.5989873,-93.6229402,6405.2284577587,c
588,MercyOne Dubuque Medical Center,"250 Mercy Drive, Dubuque, IA 52001-7360",42.4925024,-90.674608,6252.4672715398,c
589,MercyOne West Des Moines Medical Center,"1755 59th Place, West Des Moines, IA 50266",41.5978449,-93.790643,6413.8884842075,c
590,Methodist Jennie Edmundson Hospital,"933 E. Pierce Street, Council Bluffs, IA 51503-4652",41.2685464,-95.8347527,6520.8695876175,c
591,Methodist West Hospital,"1660 60th Street, West Des Moines, IA 50266",41.5963821,-93.7952894,6414.13276465,c
592,Ottumwa Regional Health Center,"1001 E. Pennsylvania Avenue, Ottumwa, IA 52501-2186",41.0288887,-92.3895049,6342.6254908127,c
593,Southeast Iowa Regional Medical Center - Fort Madison Campus,"5445 Avenue O, Fort Madison, IA 52627-0174",40.624254,-91.382318,6290.5844156281,c
594,Spencer Hospital,"1200 First Avenue East, Spencer, IA 51301",43.149941,-95.143174,6477.1824226583,c
595,St. Anthony Regional Hospital,"311 South Clark Street, Carroll, IA 51401-3038",42.0564248,-94.8660363,6467.5846632748,c
596,UnityPoint Health - Finley Hospital,"350 N. Grandview Avenue, Dubuque, IA 52001-6388",42.4962806,-90.6859143,6253.0411369185,c
597,UnityPoint Health - St. Luke's Hospital in Cedar Rapids,"1026 A Avenue NE, Cedar Rapids, IA 52402-3026",41.9852983,-91.6604849,6303.3700827592,c
598,UnityPoint Health - St. Luke's Regional Medical Center of Sioux City,"2720 Stone Park Boulevard, Sioux City, IA 51104-2000",42.5194638,-96.4059744,6543.9978943734,c
599,UnityPoint Health - Trinity Bettendorf,"4500 Utica Ridge Road, Bettendorf, IA 52722-1626",41.5660214,-90.5198278,6244.9710695632,c
600,UnityPoint Health - Trinity Regional Medical Center,"802 Kenyon Road, Fort Dodge, IA 50501-5795",42.4938813,-94.1892636,6431.4287872922,c
601,UnityPoint Health-Grinnell Regional Medical Center,"210 Fourth Avenue, Grinnell, IA 50112-1833",41.7425262,-92.7344295,6359.0391309543,c
602,MercyOne North Iowa Medical Center,"1000 Fourth Street SW, Mason City, IA 50401-2800",43.150633,-93.217178,6380.2225360652,d
603,MercyOne Siouxland Medical Center,"801 5th Street, Sioux City, IA 51101",42.4954546,-96.4011583,6543.8787322597,d
604,MercyOne Waterloo Medical Center,"3421 W. Ninth Street, Waterloo, IA 50702-5499",42.4610567,-92.3460308,6337.662437702,d
605,Southeast Iowa Regional Medical Center - West Burlington Campus,"1221 S. Gear Avenue, West Burlington, IA 52655-1681",40.80922,-91.1702814,6279.2963197168,d
606,University of Iowa Hospitals and Clinics,"200 Hawkins Drive, Iowa City, IA 52242-1009",41.6594594,-91.5479919,6297.9995468908,d
607,MercyOne Cedar Falls Medical Center,"515 College Street, Cedar Falls, IA 50613-2500",42.5336466,-92.4580897,6343.226431068,g
608,UnityPoint Health - Marshalltown,"3 S. Fourth Avenue, Marshalltown, IA 50158-2998",42.0490806,-92.9193637,6367.8466946215,g
609,Portneuf Medical Center,"777 Hospital Way, Pocatello, ID 83201-4004",42.8738682,-112.4210182,7339.5269136743,a
610,Saint Alphonsus Medical Center - Nampa,"4300 E Flamingo Ave, Nampa, ID 83687-3138",43.5974489,-116.517392,7521.4614844599,a
611,St. Luke's Boise Medical Center,"190 East Bannock Street, Boise, ID 83712-6241",43.6128522,-116.1923153,7505.7277899125,a
612,St. Luke's Magic Valley Medical Center,"801 Pole Line Road West, Twin Falls, ID 83301-5810",42.5907332,-114.4959781,7446.0626175922,a
613,St. Luke's Meridian Medical Center,"520 S. Eagle Rd., Meridian, ID 83642-6351",43.5998371,-116.3522255,7513.5906762861,a
614,West Valley Medical Center,"1717 ARLINGTON AVE, Caldwell, ID 83605-4864",43.6544661,-116.6948518,7528.562981693,a
615,Eastern Idaho Regional Medical Center,"3100 Channing Way, Idaho Falls, ID 83404-7533",43.4700469,-111.9916136,7307.6077660418,b
616,Kootenai Health,"2003 Kootenai Health Way, Coeur D'Alene, ID 83814-2677",47.6962908,-116.793832,7438.3757849314,b
617,Saint Alphonsus Regional Medical Center - Boise,"1055 North Curtis Road, Boise, ID 83706-1370",43.613949,-116.2565541,7508.7459196348,b
618,St. Luke's Nampa Medical Center,"9850 W. St. Luke's Drive, Nampa, ID 83687-7912",43.6173907,-116.5903087,7524.46117733,b
619,Madison Memorial Hospital,"450 East Main St, Rexburg, ID 83440-2048",43.825512,-111.770711,7290.4050075644,c
620,St. Joseph Regional Medical Center,"415 Sixth Street, Lewiston, ID 83501-0816",46.4164964,-117.0249777,7479.3676518412,d
621,Mountain View Hospital,"2325 Coronado Street, Idaho Falls, ID 83404",43.4743705,-111.987557,7307.3318314291,g
622,AdventHealth GlenOaks,"701 N. Winthrop Avenue, Glendale Heights, IL 60139-1403",41.914654,-88.057238,6118.2259379542,a
623,AdventHealth Hinsdale,"120 N. Oak Street, Hinsdale, IL 60521-3890",41.8056124,-87.9206821,6111.0246909333,a
624,AdventHealth La Grange,"5101 S. Willow Springs Road, La Grange, IL 60525-2680",41.7969289,-87.8859883,6109.2237204998,a
625,Ascension Resurrection,"7435 W. Talcott Avenue, Chicago, IL 60631-3746",41.987827,-87.8143703,6105.8720205492,a
626,Blessing Hospital,"11th & Broadway, Quincy, IL 62301",39.9356331,-91.3983503,6292.175790425,a
627,Carle Foundation Hospital,"611 W. Park Street, Urbana, IL 61801-2595",40.1178595,-88.2138419,6123.7354969062,a
628,Elmhurst Memorial Hospital,"155 East Brush Hill Road, Elmhurst, IL 60126-2989",41.864222,-87.9357411,6111.8973311191,a
629,Graham Hospital,"210 W. Walnut Street, Canton, IL 61520-2497",40.5527854,-90.039458,6220.1713511031,a
630,HSHS St. Elizabeth's Hospital,"1 Saint Elizabeth's Blvd, O'Fallon, IL 62269",38.5906689,-89.9339015,6214.5305313605,a
631,Insight Hospital & Medical Center Chicago,"2525 S. Michigan Avenue, Chicago, IL 60616-2477",41.8466974,-87.6213852,6095.6945672357,a
632,Loyola Gottlieb Memorial Hospital,"701 W. North Avenue, Melrose Park, IL 60160-1692",41.9108216,-87.8423407,6107.1739903553,a
633,MacNeal Hospital,"3249 S. Oak Park Avenue, Berwyn, IL 60402-0715",41.8321577,-87.7916104,6104.4266548596,a
634,McDonough District Hospital,"525 E. Grant Street, Macomb, IL 61455-3318",40.4479134,-90.6657847,6253.1047752882,a
635,Morris Hospital,"150 W. High Street, Morris, IL 60450-1497",41.3691093,-88.4254953,6136.4667353281,a
636,Northwest Community Hospital,"800 W. Central Road, Arlington Heights, IL 60005-2392",42.0673573,-87.9935772,6115.2010380128,a
637,Northwestern Medicine Central DuPage Hospital,"25 N. Winfield Road, Winfield, IL 60190",41.872551,-88.15703,6123.2927755384,a
638,Northwestern Medicine Delnor Hospital,"300 Randall Road, Geneva, IL 60134",41.8856574,-88.3431137,6132.8816367234,a
639,Northwestern Medicine Huntley Hospital,"10400 Haligus Rd, Huntley, IL 60142",42.1791104,-88.4027467,6136.3268342441,a
640,Northwestern Medicine Kishwaukee Hospital,"1 Kish Hospital Drive, DeKalb, IL 60115-9602",41.9628227,-88.7238401,6152.541160683,a
641,Northwestern Medicine McHenry Hospital,"4201 Medical Center Drive, McHenry, IL 60050-9506",42.3182475,-88.2793253,6130.2030844344,a
642,Northwestern Medicine Palos Hospital,"12251 S. 80th Avenue, Palos Heights, IL 60463-0930",41.6687555,-87.813948,6105.2893295803,a
643,OSF HealthCare Saint Francis Medical Center,"530 NE Glen Oak Avenue, Peoria, IL 61637-0001",40.7018902,-89.5907819,6196.6660457427,a
644,OSF Saint James - John W. Albrecht Medical Center,"2500 W. Reynolds Street, Pontiac, IL 61764-2194",40.8733544,-88.6761509,6148.9408562104,a
645,Ottawa Regional Hospital and Healthcare Center dba OSF Saint Elizabeth Medical Center,"1100 E. Norris Drive, Ottawa, IL 61350-1687",41.3577404,-88.824195,6157.1259627504,a
646,Riverside Medical Center,"350 N. Wall Street, Kankakee, IL 60901-0749",41.1256827,-87.8852665,6108.0530370607,a
647,Rush Copley Medical Center,"2000 Ogden Avenue, Aurora, IL 60504-7222",41.7294968,-88.269583,6128.8830038552,a
648,Rush Oak Park Hospital,"520 S. Maple Avenue, Oak Park, IL 60304-1097",41.8785658,-87.8030661,6105.0982371215,a
649,Rush University Medical Center,"1653 W. Congress Parkway, Chicago, IL 60612-3833",41.8746425,-87.669154,6098.2046014677,a
650,SIH Memorial Hospital of Carbondale,"405 W. Jackson Street, Carbondale, IL 62901-9000",37.7277551,-89.2202884,6175.4930268115,a
651,Silver Cross Hospital,"1900 Silver Cross Boulevard, New Lenox, IL 60451",41.544463,-87.983788,6113.8515301938,a
652,SSM Health St. Mary's Hospital-Centralia,"400 N. Pleasant Avenue, Centralia, IL 62801-3091",38.5300938,-89.1172755,6170.3914152225,a
653,UnityPoint Health - Methodist,"221 NE Glen Oak Avenue, Peoria, IL 61636-4310",40.7007812,-89.5952936,6196.902004165,a
654,University of Chicago Medical Center,"5841 S. Maryland Avenue, Chicago, IL 60637-1447",41.7883128,-87.6045656,6094.716772902,a
655,AdventHealth Bolingbrook,"500 Remington Boulevard, Bolingbrook, IL 60440-4988",41.6807313,-88.0836217,6119.2217203166,b
656,Ascension Alexian Brothers,"800 Biesterfield Road, Elk Grove Village, IL 60007-3397",42.0046842,-88.0166379,6116.2831078137,b
657,Ascension Mercy,"1325 N. Highland Avenue, Aurora, IL 60506-1449",41.7855592,-88.3257258,6131.852634539,b
658,Ascension Saint Alexius,"1555 Barrington Road, Hoffman Estates, IL 60169-1019",42.0532391,-88.1411079,6122.744675755,b
659,Ascension Saint Francis,"355 Ridge Avenue, Evanston, IL 60202-3399",42.0246094,-87.6844059,6099.2689184379,b
660,Ascension Saint Joseph - Joliet,"333 N. Madison Street, Joliet, IL 60435-6595",41.5276041,-88.1361629,6121.7036908297,b
661,Ascension Saint Joseph-Chicago,"2900 N. Lake Shore Drive, Chicago, IL 60657",41.9341784,-87.6357937,6096.6024081328,b
662,Ascension Saint Joseph-Elgin,"77 N. Airlite Street, Elgin, IL 60123-4912",42.0357784,-88.3267271,6132.2414786149,b
663,Ascension Saint Mary-Chicago,"2233 W. Division Street, Chicago, IL 60622-8151",41.9023507,-87.683302,6098.9838685409,b
664,Ascension Saint Mary-Kankakee,"500 W. Court Street, Kankakee, IL 60901-3661",41.1204987,-87.8720403,6107.3561558045,b
665,Edward Hospital,"801 S. Washington Street, Naperville, IL 60540-7499",41.7611376,-88.1500562,6122.7683497521,b
666,"Genesis Medical Center, Silvis","801 Illini Drive, Silvis, IL 61282-1893",41.495809,-90.418714,6239.7678202109,b
667,HSHS St. Anthony's Memorial Hospital,"503 N. Maple Street, Effingham, IL 62401-2099",39.126797,-88.550591,6140.4198165328,b
668,"HSHS St. Joseph's Hospital, Breese","9515 Holy Cross Lane, Breese, IL 62230-0099",38.626075,-89.523358,6192.373064579,b
669,Humboldt Park Health,"1044 N. Francisco, Chicago, IL 60622-2794",41.9006786,-87.6996714,6099.8222224431,b
670,Ingalls Memorial Hospital,"1 Ingalls Drive, Harvey, IL 60426-3591",41.607243,-87.6595979,6097.2106614405,b
671,Loretto Hospital,"645 S. Central Avenue, Chicago, IL 60644-9987",41.8721531,-87.763604,6103.057369759,b
672,NorthShore University HealthSystem -Evanston Hospital,"2650 Ridge Avenue, Evanston, IL 60201-1613",42.0655989,-87.6842083,6099.3354517373,b
673,NorthShore University HealthSystem -Glenbrook Hospital,"2100 Pfingsten Road, Glenview, IL 60025",42.091372,-87.8538835,6108.0799876418,b
674,NorthShore University HealthSystem-Highland Park Hospital,"777 Park Avenue W., Highland Park, IL 60035",42.189816,-87.807584,6105.8816217477,b
675,OSF Sacred Heart Medical Center,"812 N. Logan Avenue, Danville, IL 61832-3788",40.1381038,-87.6456841,6093.7623776093,b
676,OSF Saint Anthony Medical Center,"5666 E. State Street, Rockford, IL 61108-2425",42.2697837,-89.0074714,6167.3575009631,b
677,OSF Saint Anthony's Health Center,"1 St. Anthonys Way, Alton, IL 62002-4579",38.9076261,-90.1721006,6227.3526466348,b
678,OSF St. Mary Medical Center,"3333 N. Seminary Street, Galesburg, IL 61401-1299",40.9882054,-90.3637395,6237.0697656394,b
679,Swedish Hospital,"5145 N. California Avenue, Chicago, IL 60625-3688",41.9752241,-87.6981672,6099.8832081447,b
680,UnityPoint Health - Proctor,"5409 N. Knoxville Avenue, Peoria, IL 61614-5094",40.7529512,-89.5976133,6197.0400223583,b
681,Advocate Condell Medical Center,"801 S. Milwaukee Avenue, Libertyville, IL 60048-3199",42.2744766,-87.9575656,6113.6970434058,c
682,Advocate Good Samaritan Hospital,"3815 Highland Avenue, Downers Grove, IL 60515-1590",41.817932,-88.0090369,6115.5934455982,c
683,Advocate Good Shepherd Hospital,"450 IL-22, Barrington, IL 60010-1901",42.195692,-88.1732015,6124.6012271532,c
684,Advocate Illinois Masonic Medical Center,"836 W. Wellington Avenue, Chicago, IL 60657-5193",41.9367831,-87.6513434,6097.4062440774,c
685,Advocate Lutheran General Hospital,"1775 Dempster Street, Park Ridge, IL 60068-1174",42.0384783,-87.847611,6107.6665076995,c
686,Advocate Sherman Hospital,"1425 N. Randall Road, Elgin, IL 60123-2300",42.069983,-88.3307273,6132.4928308595,c
687,Alton Memorial Hospital,"1 Memorial Drive, Alton, IL 62002-6722",38.8996874,-90.1591356,6226.6565666245,c
688,Anderson Hospital,"6800 State Route 162, Maryville, IL 62062-8500",38.7368469,-89.9462256,6215.2019824011,c
689,Carle BroMenn Medical Center,"1304 Franklin Avenue, Normal, IL 61761",40.4963905,-88.9910596,6165.0921584934,c
690,Carle Richland Memorial Hospital,"800 E. Locust Street, Olney, IL 62450-2553",38.7350509,-88.0770778,6114.4746109437,c
691,CGH Medical Center,"100 E Le Fevre Rd, Sterling, IL 61081-1279",41.8016008,-89.6971385,6202.5015595257,c
692,Decatur Memorial Hospital,"2300 N. Edward Street, Decatur, IL 62526-4192",39.8666192,-88.9613543,6163.0226359609,c
693,FHN Memorial Hospital,"1045 W. Stephenson Street, Freeport, IL 61032-4899",42.2959242,-89.6377339,6199.5866569584,c
694,Franciscan St. James Health - Olympia Fields,"20201 S. Crawford Avenue, Olympia Fields, IL 60461-1080",41.5228644,-87.7112953,6099.7258350156,c
695,Galesburg Cottage Hospital,"695 N. Kellogg Street, Galesburg, IL 61401-2885",40.9556647,-90.3657881,6237.1860150255,c
696,Heartland Regional Medical Center,"3333 W. Deyoung Street, Marion, IL 62959",37.742889,-88.99147,6163.001046382,c
697,Holy Cross Hospital,"2701 W. 68th Street, Chicago, IL 60629-1882",41.76905,-87.6924155,6099.2048897915,c
698,HSHS St. John's Hospital,"800 E. Carpenter Street, Springfield, IL 62769-0002",39.8057286,-89.6451854,6199.2678079262,c
699,HSHS St. Mary's Hospital,"1800 E. Lake Shore Drive, Decatur, IL 62521-3883",39.8274883,-88.9316974,6161.4177615952,c
700,Jackson Park Hospital,"7531 S. Stony Island Avenue, Chicago, IL 60649-3993",41.7576761,-87.5851304,6093.6565297791,c
701,John H. Stroger Jr. Hospital,"1969 W. Ogden, Chicago, IL 60612-3785",41.8727494,-87.6757854,6098.5420855421,c
702,Katherine Shaw Bethea Hospital,"403 E. First St, Dixon, IL 61021-3187",41.8445416,-89.4793127,6191.3008462421,c
703,Loyola University Medical Center,"2160 South First Avenue, Maywood, IL 60153-5585",41.8598585,-87.8351047,6106.7132262768,c
704,Memorial Hospital Belleville,"4500 Memorial Drive, Belleville, IL 62226-5399",38.5502641,-90.0214907,6219.2611993663,c
705,Memorial Medical Center,"701 N. First Street, Springfield, IL 62781-0001",39.8096826,-89.6560412,6199.8450390219,c
706,Mt. Sinai Hospital,"1500 South Fairfield Avenue, Chicago, IL 60608",41.860833,-87.6946003,6099.4875796744,c
707,"Northwestern Medicine, Lake Forest Hospital","1000 N. Westmoreland Road, Lake Forest, IL 60045-1696",42.2564901,-87.8656264,6108.9672183854,c
708,Northwestern Memorial Hospital,"251 E. Huron Street, Chicago, IL 60611-2908",41.8946256,-87.6209858,6095.7658064547,c
709,OSF HealthCare System dba OSF Little Co of Mary Medical Center,"2800 West 95th Street, Evergreen Park, IL 60805-2795",41.7213929,-87.6928628,6099.1396372883,c
710,OSF Heart of Mary Medical Center,"1400 W. Park Street, Urbana, IL 61801-2396",40.1179701,-88.2276504,6124.4650689441,c
711,OSF St. Joseph Medical Center,"2200 E. Washington Street, Bloomington, IL 61701-4323",40.4825368,-88.9552457,6163.199316724,c
712,Passavant Area Hospital,"1600 W. Walnut Street, Jacksonville, IL 62650-1136",39.746148,-90.2601491,6231.9196866888,c
713,Saint Anthony Hospital,"2875 W. 19th Street, Chicago, IL 60623-3596",41.855127,-87.6981271,6099.658418889,c
714,SIH Herrin Hospital,"201 S. 14th Street, Herrin, IL 62948-3631",37.8014366,-89.0262152,6164.9413208607,c
715,SSM Health Good Samaritan Hospital - Mount Vernon,"1 Good Samaritan Way, Mount Vernon, IL 62864-2899",38.2970823,-88.9389927,6160.5709220178,c
716,St Bernard Hospital,"326 W. 64th Street, Chicago, IL 60621-3146",41.7785632,-87.6336764,6096.1972806504,c
717,St. Margaret's Health - Peru,"925 West Street, Peru, IL 61354-2757",41.3289799,-89.1243531,6172.6706616614,c
718,St. Margaret's Health - Spring Valley,"600 E. First Street, Spring Valley, IL 61362-2034",41.3289214,-89.1930754,6176.2358907986,c
719,Thorek Memorial Hospital,"850 W. Irving Park Road, Chicago, IL 60613-3077",41.9547337,-87.6515236,6097.4494873035,c
720,Trinity Moline,"500 John Deere Rd, Moline, IL 61265",41.4681104,-90.530915,6245.5857340767,c
721,Trinity Rock Island,"2701 17th Street, Rock Island, IL 61201-5393",41.4826277,-90.5706604,6247.6367281498,c
722,UnityPoint Health-Pekin,"600 S. 13th Street, Pekin, IL 61554-5098",40.5629866,-89.6328151,6198.8275891208,c
723,University of Illinois Hospital and Health Sciences System,"1740 West Taylor Street, Chicago, IL 60612-7232",41.8693103,-87.6705173,6098.264711167,c
724,UW Health SwedishAmerican Hospital,"1401 E. State Street, Rockford, IL 61104-2315",42.2662132,-89.0736066,6170.7358071788,c
725,Weiss Memorial Hospital,"4646 N. Marine Drive, Chicago, IL 60640-1501",41.966776,-87.6494472,6097.3656673309,c
726,West Suburban Medical Center,"3 Erie Court, Oak Park, IL 60302-2599",41.8913716,-87.7761143,6103.7351806666,c
727,Advocate Christ Medical Center,"4440 95th Street, Oak Lawn, IL 60453-2699",41.7218793,-87.7324115,6101.1792524045,d
728,Advocate South Suburban Hospital,"17800 S. Kedzie Avenue, Hazel Crest, IL 60429-0989",41.5664505,-87.6972842,6099.0816175529,d
729,Advocate Trinity Hospital,"2320 E. 93rd Street, Chicago, IL 60617-9984",41.7266761,-87.5669741,6092.6605803353,d
730,Community First Medical Center,"5645 W. Addison Street, Chicago, IL 60634-4455",41.9454267,-87.7677308,6103.4013742042,d
731,Gateway Regional Medical Center,"2100 Madison Avenue, Granite City, IL 62040-4799",38.700844,-90.1432704,6225.8250366039,d
732,Javon Bea Hospital,"2400 N. Rockton Avenue, Rockford, IL 61103-3692",42.2984409,-89.098972,6172.0561865048,d
733,Roseland Community Hospital,"45 W. 111th Street, Chicago, IL 60628-4200",41.6923072,-87.6253866,6095.6058855066,d
734,Sarah Bush Lincoln Health Center,"1000 Health Center Drive, Mattoon, IL 61938-0372",39.4881278,-88.2740009,6126.0742404812,d
735,Vista Medical Center East,"1324 N. Sheridan Road, Waukegan, IL 60085-2181",42.3781918,-87.8325227,6107.4891330401,f
736,Crossroads Community Hospital,"8 Doctors Park Road, Mount Vernon, IL 62864-6224",38.3119835,-88.9351449,6160.3741595143,g
737,HSHS Holy Family Hospital,"200 Health Care Drive, Greenville, IL 62246-1156",38.9033361,-89.4067214,6186.2018338673,g
738,Ascension St. Vincent Evansville,"3700 Washington Avenue, Evansville, IN 47750-0002",37.9643196,-87.5040721,6082.1627339497,a
739,Ascension St. Vincent Fishers Hospital,"13861 Olio Road, Fishers, IN 46037-3487",39.9894966,-85.9161569,6002.0009101122,a
740,Baptist Health Floyd,"1850 State Street, New Albany, IN 47150-4997",38.3017384,-85.834286,5992.3161017864,a
741,Community Howard Regional Health,"3500 S. Lafountain Street, Kokomo, IN 46902",40.4466456,-86.1270708,6014.5336447726,a
742,Deaconess Midtown Hospital,"600 Mary Street, Evansville, IN 47747-0001",37.9830836,-87.5712565,6085.8548197832,a
743,Dupont Hospital,"2520 E. Dupont Road, Fort Wayne, IN 46825",41.174876,-85.10943,5963.903406502,a
744,Franciscan Health Mooresville,"1201 Hadley Road, Mooresville, IN 46158-1789",39.6076802,-86.3557477,6024.1738237331,a
745,Good Samaritan Hospital,"520 S. Seventh Street, Vincennes, IN 47591-1098",38.6727348,-87.5328594,6085.0372981706,a
746,Goshen Health Hospital,"200 High Park Avenue, Goshen, IN 46526-4899",41.56341,-85.830526,6002.6443119087,a
747,Hancock Regional Hospital,"801 N. State Street, Greenfield, IN 46140-1270",39.794902,-85.767705,5993.5139257225,a
748,Hendricks Regional Health - Danville Hospital,"1000 E. Main Street, Danville, IN 46122-0409",39.76255,-86.50165,6032.3512821184,a
749,IU Health North Hospital,"11700 N. Meridian Street, Carmel, IN 46032",39.959301,-86.1601632,6014.8145242047,a
750,Northwest Health - Porter,"85 US-6 Frontage Road, Valparaiso, IN 46383",41.5519324,-87.0501981,6065.6135896221,a
751,Parkview Huntington Hospital,"2001 Stults Road, Huntington, IN 46750-3696",40.905759,-85.4885479,5982.6283522279,a
752,Parkview Regional Medical Center,"11109 Parkview Plaza Drive, Fort Wayne, IN 46845",41.1841024,-85.0999992,5963.4496669598,a
753,St. Elizabeth Dearborn,"600 Wilson Creek Road, Lawrenceburg, IN 47025-1199",39.111381,-84.8834278,5943.9541349907,a
754,St. Vincent Carmel Hospital,"13500 N. Meridian Street, Carmel, IN 46032",39.982751,-86.143426,6013.9990850287,a
755,Terre Haute Regional Hospital,"3901 S. Seventh Street, Terre Haute, IN 47802-5709",39.4195116,-87.4089787,6079.8278497349,a
756,Witham Health Services,"2605 N. Lebanon Street, Lebanon, IN 46052",40.0762,-86.4750559,6031.7958943781,a
757,Bluffton Regional Medical Center,"303 S. Main Street, Bluffton, IN 46714-2529",40.7374106,-85.1711496,5965.4369671336,b
758,Deaconess Gateway Hospital,"4011 Gateway Boulevard, Newburgh, IN 47630-8947",37.9744699,-87.444855,6078.957603629,b
759,Franciscan Health Crawfordsville,"1710 Lafayette Road, Crawfordsville, IN 47933-1099",40.0646545,-86.9082107,6054.6518626964,b
760,Franciscan Health Michigan City,"3500 Franciscan Way, Michigan City, IN 46360-4358",41.6597642,-86.8981078,6058.0226721973,b
761,Henry Community Health,"1000 N. 16th Street, New Castle, IN 47362-4319",39.943402,-85.3630575,5972.5925072506,b
762,IU Health Ball Memorial Hospital,"2401 West University Avenue, Muncie, IN 47303",40.1968976,-85.4146284,5976.2235559676,b
763,IU Health Bloomington Hospital,"2651 East Discovery Parkway, Bloomington, IN 47408",39.1770464,-86.5023245,6030.8165523646,b
764,IU Health West Hospital,"1111 Ronald Reagan Parkway, Avon, IN 46123",39.779959,-86.3401688,6023.8311110418,b
765,Johnson Memorial Hospital,"1125 W. Jefferson Street, Franklin, IN 46131-2140",39.4795429,-86.0768772,6008.9568794499,b
766,La Porte Hospital Company LLC dba Northwest Health - La Porte,"1331 State Street, La Porte, IN 46350-3201",41.6091792,-86.7279259,6049.1116695667,b
767,Lutheran Hospital of Indiana,"7950 W. Jefferson Boulevard, Fort Wayne, IN 46804-1677",41.0390868,-85.2498969,5970.6852747004,b
768,Marion General Hospital DBA Marion Health,"441 N. Wabash Avenue, Marion, IN 46952-2690",40.564681,-85.665463,5990.6904101725,b
769,Memorial Hospital of South Bend,"615 N. Michigan Street, South Bend, IN 46601-9986",41.6840257,-86.2520515,6024.7742350233,b
770,Parkview Noble Hospital,"401 N. Sawyer Road, Kendallville, IN 46755-0728",41.448027,-85.295743,5974.6014118572,b
771,Parkview Whitley Hospital,"1260 East State Road 205, Columbia City, IN 46725-1623",41.158229,-85.4648969,5982.3020629529,b
772,Reid Health,"1100 Reid Parkway, Richmond, IN 47374-9693",39.8642159,-84.8848032,5946.983742922,b
773,Saint Joseph Health Mishawaka Medical Center,"5215 Holy Cross Parkway, Mishawaka, IN 46545-1469",41.7065071,-86.1741259,6020.8263395498,b
774,Saint Joseph Health Plymouth Medical Center,"1915 Lake Avenue, Plymouth, IN 46563-9905",41.3334094,-86.3323421,6027.8850861647,b
775,St Vincent Anderson Regional Hospital,"2015 Jackson Street, Anderson, IN 46016-4339",40.0955671,-85.6814411,5989.9458750811,b
776,Clark Memorial Hospital,"1220 Missouri Avenue, Jeffersonville, IN 47130-3743",38.2820658,-85.7493421,5987.6527862009,c
777,Community Hospital,"901 MacArthur Boulevard, Munster, IN 46321-2959",41.5506256,-87.5062531,6089.1790329839,c
778,Community Hospital Anderson,"1515 N. Madison Avenue, Anderson, IN 46011-3453",40.1303609,-85.6932496,5990.6857447885,c
779,Community Hospital East,"1500 N. Ritter Avenue, Indianapolis, IN 46219-3095",39.7872463,-86.0749683,6009.784715906,c
780,Community Hospital North,"7150 Clearvista Drive, Indianapolis, IN 46256",39.9006049,-86.0421807,6008.3925278991,c
781,Community Hospital South,"1402 East County Line Road, Indianapolis, IN 46227",39.6365539,-86.132546,6012.3893694302,c
782,Daviess Community Hospital,"1314 E. Walnut Street, Washington, IN 47501-2198",38.6586953,-87.1603192,6064.9206870048,c
783,Elkhart General Hospital,"600 East Boulevard, Elkhart, IN 46514-2499",41.6796028,-85.993207,6011.4176977033,c
784,Eskenazi Health,"720 Eskenazi Avenue, Indianapolis, IN 46202-5166",39.7781121,-86.1842091,6015.5520333327,c
785,Franciscan Health Carmel,"12188-B N. Meridian St., Carmel, IN 46032-4840",39.9679498,-86.1587928,6014.7677641256,c
786,Franciscan Health Crown Point,"1201 S. Main Street, Crown Point, IN 46307-8483",41.3953233,-87.3664721,6081.6281615046,c
787,Franciscan Health Dyer,"24 Joliet Street, Dyer, IN 46311",41.49287,-87.5253663,6090.0525976266,c
788,Franciscan Health Hammond,"5454 Hohman Avenue, Hammond, IN 46320",41.6151446,-87.5241296,6090.2308240145,c
789,Franciscan Health Indianapolis,"8111 S. Emerson Avenue, Indianapolis, IN 46237",39.6499115,-86.081429,6009.7124577,c
790,Franciscan Health Lafayette East,"1701 S. Creasy Lane, Lafayette, IN 47905",40.394099,-86.835022,6051.5966860424,c
791,Franciscan Health Munster,"701 Superior Avenue, Munster, IN 46321-4029",41.5379898,-87.5120467,6089.4533194503,c
792,IU Health Arnett Hospital,"5165 McCarty Lane, Lafayette, IN 47905-8764",40.4003818,-86.8074872,6050.1644428241,c
793,IU Health Methodist Hospital,"1701 N Senate Blvd, Indianapolis, IN 46202",39.7903409,-86.1633559,6014.4820141829,c
794,IU Health University Hospital,"550 University Boulevard, Indianapolis, IN 46202-5149",39.7756979,-86.1755062,6015.083223948,c
795,King's Daughter's Health,"1373 East State Road 62, Madison, IN 47250-3357",38.7925352,-85.3642044,5968.569007987,c
796,Kosciusko Community Hospital,"2101 E. Dubois Drive, Warsaw, IN 46580-3288",41.2483612,-85.8287352,6001.5031287788,c
797,Logansport Memorial Hospital,"1101 Michigan Avenue, Logansport, IN 46947-7013",40.763244,-86.361619,6027.7590717292,c
798,Lutheran Downtown Hospital,"702 Van Buren St., Fort Wayne, IN 46802-3697",41.0784212,-85.1504073,5965.6597528857,c
