,Name,SafetyGrade,ZIP,Latitude,Longitude,Distance,Address
0,Alaska Regional Hospital,A,99508,61.210404,-149.8286335,7918.0198498343,"2801 DEBARR ROAD, Anchorage, AK 99508-2997"
1,Mat-Su Regional Medical Center,B,99645,61.562971,-149.2578179,7887.2712026392,"2500 South Woodworth Loop, Palmer, AK 99645"
2,Bartlett Regional Hospital,C,99801,58.328916,-134.4650653,7708.9709345946,"3260 Hospital Drive, Juneau, AK 99801-7808"
3,Central Peninsula General Hospital,C,99669,60.4934413,-151.0780122,7982.4571687651,"250 Hospital Place, Soldotna, AK 99669-6999"
4,Fairbanks Memorial Hospital,C,99701,64.8311569,-147.7399472,7674.3740755271,"1650 Cowles Street, Fairbanks, AK 99701-5998"
5,Providence Alaska Medical Center,C,99508,61.189803,-149.8187667,7919.0242631747,"3200 Providence Drive, Anchorage, AK 99508"
6,Ascension Providence,A,36608,30.6782817,-88.1985523,6111.0615616372,"6801 Airport Boulevard, Mobile, AL 36608-3785"
7,Evergreen Medical Center,A,36401,31.4307995,-86.9404629,6037.7560708086,"101 Crestview Avenue, Evergreen, AL 36401-0706"
8,Fayette Medical Center,A,35555,33.7085114,-87.8245026,6093.0746862807,"1653 Temple Avenue N, Fayette, AL 35555-1314"
9,Grandview Medical Center,A,35243,33.4326147,-86.7185683,6028.9307006448,"3690 Grandview Parkway, Birmingham, AL 35243"
10,Mizell Memorial Hospital,A,36467,31.2919852,-86.2542062,5996.9924536332,"702 North Main Street, Opp, AL 36467"
11,Monroe County Hospital,A,36460,31.498257,-87.3206816,6060.277046885,"2016 S. Alabama Avenue, Monroeville, AL 36460"
12,South Baldwin Regional Medical Center,A,36535,30.4260938,-87.6843079,6080.1519541927,"1613 N. McKenzie Street, Foley, AL 36535-2299"
13,Southeast Health Medical Center,A,36301,31.2167252,-85.3630676,5944.1996039266,"1108 Ross Clark Circle, Dothan, AL 36301-3024"
14,Troy Regional Medical Center,A,36081,31.7811497,-85.9449087,5979.9954135171,"1330 Highway 231 S., Troy, AL 36081-1224"
15,Coosa Valley Medical Center,B,35150,33.1644285,-86.2555388,6001.5833157235,"315 W. Hickory Street, Sylacauga, AL 35150-2996"
16,Flowers Hospital,B,36305,31.2379068,-85.456757,5949.7908479692,"4370 W. Main Street, Dothan, AL 36305-4000"
17,Gadsden Regional Medical Center,B,35903,34.0077928,-85.9658747,5987.1135347824,"1007 Goodyear Avenue, Gadsden, AL 35903-1195"
18,Madison Hospital,B,35758,34.747074,-86.7649399,6034.4786634213,"8375 Highway 72 W, Madison, AL 35758"
19,North Baldwin Infirmary,B,36507,30.9039384,-87.7850231,6086.8019976969,"1815 Hand Avenue, Bay Minette, AL 36507-4110"
20,Northwest Medical Center,B,35594,33.930952,-87.824744,6093.4133883659,"1530 US Highway 43, Winfield, AL 35594-5056"
21,Springhill Medical Center,B,36608,30.6854594,-88.1316966,6107.0977422878,"3719 Dauphin Street, Mobile, AL 36608"
22,St. Vincent's Birmingham,B,35205,33.5071812,-86.7889111,6033.1438691791,"810 St. Vincent's Drive, Birmingham, AL 35205-1695"
23,Thomas Hospital,B,36532,30.5199796,-87.8882023,6092.417942621,"750 Morphy Avenue, Fairhope, AL 36532-1812"
24,Andalusia Health,C,36420,31.2994329,-86.4925119,6011.070676873,"849 S. Three Notch Street, Andalusia, AL 36420-5325"
25,Athens-Limestone Hospital,C,35611,34.8042607,-86.979177,6046.7537899995,"700 W. Market Street, Athens, AL 35611-2457"
26,Atmore Community Hospital,C,36502,31.016364,-87.479345,6068.8609676712,"401 Medical Park Drive, Atmore, AL 36502-3091"
27,Brookwood Baptist Medical Center,C,35209,33.4642365,-86.7764088,6032.331823743,"2010 Brookwood Medical Center Drive, Birmingham, AL 35209-6875"
28,Citizens Baptist Medical Center,C,35160,33.439795,-86.0921538,5992.8532347626,"604 Stone Avenue, Talladega, AL 35160-2217"
29,Crestwood Medical Center,C,35801,34.6935826,-86.572207,6023.4173025458,"One Hospital Drive, Huntsville, AL 35801-3403"
30,Cullman Regional Medical Center,C,35058,34.207676,-86.8748921,6039.5662341126,"1912 Alabama Highway 157, Cullman, AL 35058"
31,D. W. McMillan Memorial Hospital,C,36426,31.125938,-87.0717594,6044.9342570056,"1301 Belleville Avenue, Brewton, AL 36426-1306"
32,Dale Medical Center,C,36360,31.451328,-85.632075,5960.7244488613,"126 Hospital Avenue, Ozark, AL 36360-2080"
33,DeKalb Regional Medical Center,C,35968,34.438606,-85.7556718,5976.3257166023,"200 Medical Center Drive, Fort Payne, AL 35968-3415"
34,East Alabama Medical Center,C,36801,32.6401629,-85.4037506,5950.7787106797,"2000 Pepperell Parkway, Opelika, AL 36801"
35,Helen Keller Hospital,C,35660,34.7464826,-87.6989299,6087.4796520807,"1300 S. Montgomery Avenue, Sheffield, AL 35660-6334"
36,Highlands Medical Center,C,35768,34.6617313,-86.0466607,5993.4966157714,"380 Woods Cove Road, Scottsboro, AL 35768-2428"
37,Huntsville Hospital,C,35801,34.721046,-86.581799,6024.0263667391,"101 Sivley Road, Huntsville, AL 35801-4470"
38,Jack Hughston Memorial Hospital,C,36867,32.5080845,-85.0086714,5927.3883108374,"4401 Riverchase Drive, Phenix City, AL 36867"
39,Jackson Hospital,C,36106,32.3670831,-86.2853492,6001.3718726613,"1725 Pine Street, Montgomery, AL 36106-1117"
40,Medical Center Barbour,C,36027,31.8887,-85.1562,5934.0444831542,"820 W. Washington Street, Eufaula, AL 36027-1899"
41,Medical Center Enterprise,C,36330,31.318647,-85.855114,5973.5146464085,"400 N. Edwards Street, Enterprise, AL 36330-2584"
42,"Medical West Hospital Authority, an Affiliate of UAB Health System",C,35022,33.3731473,-86.9916643,6044.550829788,"995 9th Avenue SW, Bessemer, AL 35022-4527"
43,Mobile Infirmary Medical Center,C,36607,30.6963935,-88.0798395,6104.0299571276,"5 Mobile Infirmary Circle, Mobile, AL 36607-3513"
44,North Alabama Medical Center,C,35630,34.8043939,-87.6509453,6084.8498840268,"1701 Veterans Drive, Florence, AL 35630-4928"
45,Prattville Baptist Hospital,C,36067,32.464172,-86.451767,6011.3005717599,"124 S. Memorial Drive, Prattville, AL 36067-3619"
46,Princeton Baptist Medical Center,C,35211,33.4984021,-86.8470166,6036.4712240342,"701 Princeton Avenue SW, Birmingham, AL 35211-1305"
47,Riverview Regional Medical Center,C,35901,34.004403,-86.003626,5989.2648547245,"600 So. Third Street, Gadsden, AL 35901-5399"
48,RMC Anniston,C,36207,33.6563953,-85.8228352,5977.941436348,"400 East 10th Street, Anniston, AL 36207"
49,Russell Medical Center,C,35010,32.9212543,-85.9567325,5983.6666025392,"3316 Highway 280, Alexander City, AL 35010-3369"
50,Shelby Baptist Medical Center,C,35007,33.2524436,-86.8135545,6034.0240375944,"1000 First Street N., Alabaster, AL 35007-0488"
51,St. Vincent's East,C,35235,33.596457,-86.6676502,6026.3600920742,"50 Medical Park E. Drive, Birmingham, AL 35235-9987"
52,St. Vincent's St. Clair,C,35125,33.6043127,-86.3018159,6005.3382978677,"7063 Veterans Parkway, Pell City, AL 35125"
53,Stringfellow Memorial Hospital,C,36207,33.6677024,-85.8250278,5978.0990100316,"301 E. 18th Street, Anniston, AL 36207-0038"
54,UAB Highlands,C,35205,33.4950136,-86.8062318,6034.1153322291,"1201 11th Avenue S., Birmingham, AL 35205"
55,University Hospital,C,36617,30.7209797,-88.1021185,6105.382088301,"2451 University Hospital Drive, Mobile, AL 36617-2293"
56,University of Alabama Hospital,C,35233,33.5066461,-86.8030955,6033.9594803705,"1802 6th Ave South, Birmingham, AL 35233"
57,Vaughan Regional Medical Center,C,36701,32.429449,-87.0560426,6046.443153301,"1015 Medical Center Parkway, Selma, AL 36701-6352"
58,Walker Baptist Medical,C,35502,33.841043,-87.2365408,6059.5375026698,"3400 Highway 78 E., Jasper, AL 35502-8956"
59,Whitfield Regional Hospital,C,36732,32.3507509,-88.7433797,6144.7572607715,"105 Highway 80 E., Demopolis, AL 36732-3616"
60,Baptist Medical Center East,D,36117,32.387975,-86.1758784,5995.0392111191,"400 Taylor Road, Montgomery, AL 36117-3512"
61,Baptist Medical Center South,D,36116,32.3269463,-86.2710335,6000.4403318308,"2105 E. South Boulevard, Montgomery, AL 36116-2498"
62,DCH Regional Medical Center,D,35401,33.2053981,-87.5264812,6075.1229606919,"809 University Boulevard E., Tuscaloosa, AL 35401-9961"
63,Decatur Morgan Hospital - Decatur Campus,D,35601,34.5904135,-86.972417,6045.9258403894,"1201 7th Street SE, Decatur, AL 35601-3303"
64,Decatur Morgan Hospital-Parkway Campus,D,35601,34.5771378,-87.0158033,6048.3653007676,"1874 Beltline Road SW, Decatur, AL 35601-5509"
65,Marshall Medical Center North,D,35976,34.366053,-86.421267,6014.0464387227,"8000 Alabama Highway 69, Guntersville, AL 35976"
66,Marshall Medical Center South,D,35957,34.22159,-86.160495,5998.8073620779,"2505 US Highway 431, Boaz, AL 35957"
67,Northport Medical Center,D,35476,33.23361,-87.571248,6077.7554311104,"2700 Hospital Drive, Northport, AL 35476"
68,Shoals Hospital,F,35661,34.7449732,-87.6756154,6086.1540264496,"201 Avalon Avenue, Muscle Shoals, AL 35661-2805"
69,Clay County Hospital,G,36251,33.2773548,-85.8242805,5976.970980509,"83825 Highway 9, Ashland, AL 36251"
70,Community Hospital,G,36078,32.534053,-85.912363,5980.0624649192,"805 Friendship Road, Tallassee, AL 36078-1234"
71,Lakeland Community Hospital,G,35565,34.2419558,-87.5914018,6080.5468454834,"42024 Highway 195, Haleyville, AL 35565-9536"
72,Regional Medical Center of Central Alabama,G,36037,31.8290939,-86.64627,6021.2653619982,"29 LV Stabler Drive, Greenville, AL 36037-3800"
73,Russellville Hospital,G,35653,34.5107726,-87.7183471,6088.2130579164,"15155 Highway 43, Russellville, AL 35653-1975"
74,St Vincent's Chilton,G,35045,32.8802913,-86.622606,6022.16950655,"2030 Lay Dam Road, Clanton, AL 35045"
75,Wiregrass Medical Center,G,36340,31.0481117,-85.8905067,5974.9073027933,"1200 W. Maple Avenue, Geneva, AL 36340-1694"
76,CHI St. Vincent Hot Springs,A,71913,34.4681702,-93.0663135,6392.7323614746,"300 Werner Street, Hot Springs, AR 71913-9937"
77,Mercy Hospital Fort Smith,A,72903,35.3557971,-94.3526657,6463.2850728562,"7301 Rogers Avenue, Fort Smith, AR 72903-4189"
78,Mercy Hospital Northwest Arkansas,A,72758,36.3100716,-94.184714,6451.0086913836,"2710 Rife Medical Lane, Rogers, AR 72758"
79,NEA Baptist Memorial Hospital,A,72405,35.8668678,-90.6367043,6253.7483090543,"4800 East Johnson Avenue, Jonesboro, AR 72405-8413"
80,Northwest Medical Center Bentonville,A,72712,36.3401242,-94.1914598,6451.2938543838,"3000 Medical Center Parkway, Bentonville, AR 72712"
81,Northwest Medical Center Springdale,A,72764,36.1808233,-94.1364357,6448.7047951799,"609 West Maple Avenue, Springdale, AR 72764"
82,Siloam Springs Regional Hospital,A,72761,36.1899429,-94.5077653,6469.3626743916,"603 N Progress, Siloam Springs, AR 72761"
83,St. Bernards Medical Center,A,72401,35.8383772,-90.704126,6257.5372757126,"225 East Washington Avenue, Jonesboro, AR 72401"
84,Washington Regional Medical Center,A,72703,36.0800001,-94.1535416,6449.9558570048,"3215 N. North Hills Boulevard, Fayetteville, AR 72703-1994"
85,Baptist Health Medical Center - Conway,B,72032,35.0564394,-92.4192706,6354.9112144061,"1555 Exchange Avenue, Conway, AR 72032-7824"
86,Baptist Health Medical Center-Little Rock,B,72205,34.7444214,-92.3810554,6353.263255418,"9601 Baptist Health Drive, Little Rock, AR 72205-6323"
87,Baxter Regional Medical Center,B,72653,36.3429502,-92.3944185,6351.337936849,"624 Hospital Drive, Mountain Home, AR 72653-2955"
88,Medical Center of South Arkansas,B,71730,33.2183925,-92.6722845,6372.5409589045,"700 West Grove Street, El Dorado, AR 71730-4416"
89,Saint Mary's Regional Medical Center,B,72801,35.28319,-93.149218,6395.681805856,"1808 West Main Street, Russellville, AR 72801-2724"
90,Saline Memorial Hospital,B,72015,34.572905,-92.585083,6365.1468108019,"1 Medical Park Drive, Benton, AR 72015"
91,Baptist Health Medical Center - North Little Rock,C,72117,34.7837697,-92.2220519,6344.1786361663,"3333 Springhill Drive, North Little Rock, AR 72117-2922"
92,Conway Regional Medical Center,C,72034,35.0859847,-92.4576613,6357.0314686825,"2302 College Avenue, Conway, AR 72034"
93,Drew Memorial Health System,C,71655,33.6088487,-91.8150398,6322.5331676882,"778 Scogin Drive, Monticello, AR 71655-5728"
94,Great River Medical Center,C,72315,35.942244,-89.9188352,6213.559975035,"1520 North Division Street, Blytheville, AR 72315-1448"
95,Jefferson Regional Medical Center,C,71603,34.189055,-92.0181788,6333.4322208557,"1600 West 40th Avenue, Pine Bluff, AR 71603-7089"
96,Johnson Regional Medical Center,C,72830,35.4643692,-93.4449512,6411.9155614891,"1100 East Poplar Street, Clarksville, AR 72830-4419"
97,National Park Medical Center,C,71901,34.486004,-93.035211,6390.9245827183,"1910 Malvern Avenue, Hot Springs, AR 71901-7799"
98,Ouachita County Medical Center,C,71701,33.5758644,-92.8362602,6381.3421875048,"638 California Avenue SW, Camden, AR 71701-4699"
99,UAMS Medical Center,C,72205,34.7492719,-92.3198281,6349.7805097099,"4301 West Markham Street, Little Rock, AR 72205-7102"
100,Unity Health White County Medical Center,C,72143,35.2506878,-91.6923333,6313.5789959815,"3214 East Race Avenue, Searcy, AR 72143-4847"
101,White River Medical Center,C,72501,35.7678771,-91.6342957,6309.7128174569,"1710 Harrison Street, Batesville, AR 72501-2197"
102,Arkansas Methodist Medical Center,D,72450,36.0525618,-90.4978107,6245.9064424934,"900 West Kingshighway, Paragould, AR 72450"
103,Baptist Health - Fort Smith,D,72901,35.3741136,-94.419774,6467.0062186459,"1001 Towson Avenue, Fort Smith, AR 72901"
104,CHI St. Vincent Infirmary Medical Center,D,72205,34.7504671,-92.3393722,6350.8877704046,"2 St. Vincent Circle, Little Rock, AR 72205-5499"
105,CHI St. Vincent Medical Center-North,D,72120,34.8129009,-92.208139,6343.3450716757,"2215 Wildwood Avenue, Sherwood, AR 72120"
106,North Arkansas Regional Medical Center,D,72601,36.2366395,-93.1085129,6391.2977067245,"620 North Main Street, Harrison, AR 72601-2994"
107,Unity Health - Newport,D,72112,35.608492,-91.2648093,6289.1438618116,"1205 McLain Street, Newport, AR 72112-3533"
108,Baptist Health Medical Center - Stuttgart,G,72160,34.5178455,-91.5582488,6306.8024298633,"1703 North Buerkle Road, Stuttgart, AR 72160-1905"
109,Baptist Health Medical Center-Hot Spring County,G,72104,34.3587893,-92.785668,6376.9610489927,"1001 Schneider Drive, Malvern, AR 72104-4828"
110,Forrest City Medical Center,G,72335,35.0397728,-90.7758426,6261.9871834185,"1601 New Castle Road, Forrest City, AR 72335"
111,Helena Regional Medical Center,G,72342,34.5102191,-90.6271793,6253.8062789331,"1801 Martin Luther King Jr Drive, Helena, AR 72342"
112,Mena Regional Health System,G,71953,34.5890564,-94.2216623,6458.1495252859,"311 North Morrow Street, Mena, AR 71953-2516"
113,BANNER GATEWAY MEDICAL CENTER,A,85234,33.3826926,-111.7209955,7461.7659641534,"1900 NORTH HIGLEY ROAD, GILBERT, AZ 85234"
114,Banner Goldfield Medical Center,A,85120,33.3943945,-111.5670965,7452.9198708775,"2050 West Southern Avenue, Apache Junction, AZ 85120"
115,Banner Ironwood Medical Center,A,85140,33.2144943,-111.5656332,7455.4734168522,"37000 N Gantzel Rd, Queen Creek, AZ 85140"
116,Deer Valley Medical Center,A,85027,33.6657269,-112.1161079,7479.7391084883,"19829 North 27th Avenue, Phoenix, AZ 85027-4002"
117,Kingman Regional Medical Center,A,86409,35.2203182,-114.0371188,7560.9723792146,"3269 Stockton Hill Road, Kingman, AZ 86409-3691"
118,Mayo Clinic Hospital,A,85054,33.6582437,-111.956235,7470.8817754555,"5777 EAST MAYO BLVD, PHOENIX, AZ 85054-4502"
119,Northwest Medical Center,A,85741,32.3202768,-111.0100752,7436.6416495481,"6200 North La Cholla Boulevard, Tucson, AZ 85741-3599"
120,Oro Valley Hospital,A,85755,32.42926,-110.949664,7431.6741991213,"1551 East Tangerine Road, Oro Valley, AZ 85755"
121,SHEA MEDICAL CENTER,A,85260,33.580069,-111.8851432,7468.0640871535,"9003 EAST SHEA BOULEVARD, SCOTTSDALE, AZ 85260-6771"
122,THOMPSON PEAK HOSPITAL,A,85255,33.6706949,-111.9220325,7468.7748175475,"7400 E. Thompson Peak Pkwy, SCOTTSDALE, AZ 85255"
123,Abrazo Arrowhead Campus,B,85308,33.6550895,-112.2015464,7484.6935913667,"18701 North 67th Avenue, Glendale, AZ 85308-5722"
124,BANNER - UNIVERSITY MEDICAL CENTER PHOENIX,B,85006,33.465137,-112.057972,7479.5073535628,"1111 EAST MCDOWELL RD, PHOENIX, AZ 85006-2666"
125,BANNER BAYWOOD MEDICAL CENTER,B,85206,33.4113555,-111.6874923,7459.4544008247,"6644 E. BAYWOOD AVE, MESA, AZ 85206-1797"
126,BANNER BOSWELL MEDICAL CENTER,B,85351,33.6042603,-112.2837994,7490.0841927942,"10401 W THUNDERBIRD BLVD, SUN CITY, AZ 85351-3004"
127,Banner Casa Grande Medical Center,B,85122,32.8807401,-111.7097455,7468.5061503296,"1800 East Florence Boulevard, Casa Grande, AZ 85122"
128,BANNER DEL E WEBB MEDICAL CENTER,B,85375,33.659653,-112.372831,7494.2293056542,"14502 WEST MEEKER BLVD, SUN CITY WEST, AZ 85375-5299"
129,BANNER DESERT MEDICAL CENTER,B,85202,33.3899841,-111.877013,7470.4477606473,"1400 SOUTH DOBSON ROAD, MESA, AZ 85202-9879"
130,BANNER ESTRELLA MEDICAL CENTER,B,85037,33.478176,-112.257442,7490.5263743383,"9201 WEST THOMAS ROAD, PHOENIX, AZ 85037-3332"
131,BANNER THUNDERBIRD MEDICAL CENTER,B,85306,33.6092024,-112.1795965,7484.160595444,"5555 WEST THUNDERBIRD ROAD, GLENDALE, AZ 85306-4696"
132,Banner University Medical Center-South,B,85713,32.1778717,-110.9295523,7434.0032565599,"2800 East Ajo Way, Tucson, AZ 85713-6289"
133,Canyon Vista Medical Center,B,85635,31.554586,-110.230876,7402.1637975987,"5700 East Highway 90, Sierra Vista, AZ 85635"
134,Carondelet St. Mary's Hospital,B,85745,32.228313,-110.9995908,7437.3178128883,"1601 West St Mary's Road, Tucson, AZ 85745-2682"
135,Dignity Health Arizona General Hospital - Mesa,B,85212,33.3509231,-111.6372866,7457.5161151552,"9130 East Elliot Road, Mesa, AZ 85212"
136,Flagstaff Medical Center,B,86001,35.20832,-111.643986,7429.9047996185,"1200 North Beaver Street, Flagstaff, AZ 86001-3198"
137,John C. Lincoln Medical Center,B,85020,33.5694587,-112.0708775,7478.6585221116,"250 East Dunlap Avenue, Phoenix, AZ 85020-2446"
138,Osborn Medical Center,B,85251,33.4886726,-111.9231494,7471.5700484135,"7400 EAST OSBORN ROAD, SCOTTSDALE, AZ 85251-6403"
139,St. Joseph's Hospital,B,85711,32.2265668,-110.855335,7429.0808038098,"350 North Wilmot Road, Tucson, AZ 85711-2678"
140,St. Joseph's Hospital & Medical Center,B,85013,33.4819191,-112.0793604,7480.4572541581,"350 West Thomas Road, Phoenix, AZ 85013-4496"
141,St. Joseph's Westgate Medical Center,B,85307,33.5420566,-112.2746731,7490.521471494,"7300 N. 99th Ave, Glendale, AZ 85307-3003"
142,Tucson Medical Center,B,85712,32.252903,-110.8780795,7430.0206911709,"5301 East Grant Road, Tucson, AZ 85712-2874"
143,Verde Valley Medical Center,B,86326,34.7357759,-112.0292561,7458.4713064178,"269 S Candy Lane, Cottonwood, AZ 86326-4170"
144,Abrazo Scottsdale Campus,C,85032,33.639414,-111.9973914,7473.4756873422,"3929 East Bell Road, Phoenix, AZ 85032-2196"
145,Abrazo West Campus,C,85395,33.462078,-112.352936,7496.1397438153,"13677 West McDowell Road, Goodyear, AZ 85395"
146,Banner University Medical Center-Tucson,C,85724,32.2409829,-110.9457686,7434.0607835617,"1501 N Campbell Ave, Tucson, AZ 85724"
147,Chandler Regional Medical Center,C,85224,33.2973867,-111.8746054,7471.6907814715,"1955 W. Frye Rd., Chandler, AZ 85224-4230"
148,Havasu Regional Medical Center,C,86403,34.4803821,-114.3388668,7590.2530148519,"101 Civic Center Lane, Lake Havasu City, AZ 86403-5683"
149,Mercy Gilbert Medical Center,C,85297,33.2868623,-111.7524572,7464.95692992,"3555 S Val Vista Drive, Gilbert, AZ 85297"
150,Mt. Graham Regional Medical Center,C,85546,32.822625,-109.734994,7357.0392810838,"1600 South 20th Avenue, Safford, AZ 85546-4097"
151,Valleywise Health,C,85008,33.4576589,-112.0261121,7477.8276713895,"2601 East Roosevelt Street, Phoenix, AZ 85008-4956"
152,Western Arizona Regional Medical Ctr,C,86442,35.1106768,-114.5550458,7591.1899956508,"2735 SILVER CREEK ROAD, Bullhead City, AZ 86442"
153,Yavapai Regional Medical Center - East Campus,C,86314,34.58822,-112.3309496,7477.4755553306,"7700 East Florentine Road, Prescott Valley, AZ 86314"
154,Yavapai Regional Medical Center - West Campus,C,86301,34.5596203,-112.4811881,7486.2477821661,"1003 Willow Creek Road, Prescott, AZ 86301-1668"
155,Abrazo Central Campus,D,85015,33.5247707,-112.1021957,7481.0937584793,"2000 West Bethany Home Road, Phoenix, AZ 85015-2443"
156,Florence Hospital,D,85132,33.073207,-111.4854392,7452.9962839549,"4545 North Hunt Highway, Florence, AZ 85132-6937"
157,Mountain Vista Medical Center,D,85209,33.3913915,-111.6111373,7455.4462996483,"1301 South Crismon Road, Mesa, AZ 85209"
158,Summit Healthcare Regional Medical Center,D,85901,34.2019458,-110.0191523,7354.436313981,"2200 East Show Low Lake Road, Show Low, AZ 85901-7800"
159,Tempe St. Luke's Hospital,D,85281,33.412361,-111.9406049,7473.6947580554,"1500 S. Mill Ave., Tempe, AZ 85281-6699"
160,Tuba City Regional Health Care Corporation,D,86045,36.1362562,-111.2397562,7393.4777651233,"167 North Main St., Tuba City, AZ 86045"
161,Valley View Medical Center,D,86426,35.0027485,-114.5962766,7595.3398021545,"5330 South Highway 95, Fort Mohave, AZ 86426-9225"
162,Yuma Regional Medical Center,D,85364,32.6823988,-114.634916,7637.1195148642,"2400 South Avenue A, Yuma, AZ 85364-7170"
163,Adventist Health - Bakersfield,A,93301,35.3833475,-119.0205429,7827.7829684579,"2615 Chester Avenue, Bakersfield, CA 93301-2006"
164,Adventist Health Glendale,A,91206,34.1503596,-118.2300566,7810.2623225566,"1509 Wilson Terrace, Glendale, CA 91206-4098"
165,Adventist Health Hanford,A,93230,36.3237872,-119.6664466,7841.8158676335,"115 Mall Drive, Hanford, CA 93230-3513"
166,Adventist Health Reedley,A,93654,36.6080787,-119.4517641,7824.2385162694,"372 W. Cypress Avenue, Reedley, CA 93654-2199"
167,Adventist Health Selma,A,93662,36.5676997,-119.5991582,7832.87803033,"1141 Rose Avenue, Selma, CA 93662"
168,Adventist Health St. Helena,A,94574,38.5425501,-122.4748268,7933.7326975683,"10 Woodland Road, St. Helena, CA 94574-9554"
169,Adventist Health Ukiah Valley,A,95482,39.1531894,-123.2030161,7954.2195129498,"275 Hospital Drive, Ukiah, CA 95482-4531"
170,Alhambra Hospital Medical Center,A,91801,34.090234,-118.1439896,7806.7438267443,"100 S. Raymond Avenue, Alhambra, CA 91801-3199"
171,Arroyo Grande Community Hospital,A,93420,35.1134961,-120.5904213,7917.7341289284,"345 S. Halcyon Road, Arroyo Grande, CA 93420-3899"
172,Barton Memorial Hospital,A,96150,38.911636,-119.9977995,7799.8655316342,"2170 South Avenue, South Lake Tahoe, CA 96150-7026"
173,Centinela Hospital Medical Center,A,90301,33.9507827,-118.3482572,7820.7193640196,"555 E. Hardy Street, Inglewood, CA 90301-4011"
174,Chino Valley Medical Center,A,91710,34.0255174,-117.6858572,7782.8758834904,"5451 Walnut Avenue, Chino, CA 91710-2672"
175,Community Hospital of the Monterey Peninsula,A,93940,36.5788637,-121.9131591,7953.6267927996,"23625 Holman Highway, Monterey, CA 93940"
176,Desert Valley Hospital,A,92395,34.4717272,-117.2977603,7752.9405515691,"16850 Bear Valley Road, Victorville, CA 92395"
177,Eisenhower Medical Center,A,92270,33.7629019,-116.40063,7716.9543776663,"39000 Bob Hope Drive, Rancho Mirage, CA 92270-3221"
178,El Camino Hospital,A,94040,37.3693389,-122.080472,7943.0603395962,"2500 Grant Road, Mountain View, CA 94040"
179,Encino Hospital Medical Center,A,91436,34.1575872,-118.4870689,7824.1804476421,"16237 Ventura Boulevard, Encino, CA 91436-2201"
180,Enloe Medical Center,A,95926,39.7421399,-121.8501891,7872.0471086138,"1531 Esplanade, Chico, CA 95926-3386"
181,French Hospital Medical Center,A,93401,35.2781709,-120.6511558,7917.3060153103,"1911 Johnson Avenue, San Luis Obispo, CA 93401-4131"
182,Garden Grove Hospital and Medical Center,A,92843,33.7749125,-117.9129403,7800.2537010675,"12601 Garden Grove Boulevard, Garden Grove, CA 92843"
183,Garfield Medical Center,A,91754,34.0678947,-118.1238043,7806.0803056594,"525 N. Garfield Avenue, Monterey Park, CA 91754-1205"
184,Goleta Valley Cottage Hospital,A,93111,34.4338579,-119.8103152,7890.5109062758,"351 S. Patterson Avenue, Goleta, CA 93111-2496"
185,Hoag Hospital Irvine,A,92618,33.6608946,-117.7722362,7794.7107921359,"16200 Sand Canyon Avenue, Irvine, CA 92618"
186,Hoag Memorial Hospital Presbyterian,A,92663,33.6254053,-117.9303047,7804.1252150335,"1 Hoag Drive, Newport Beach, CA 92663"
187,John Muir Medical Center Walnut Creek Campus,A,94598,37.9130871,-122.0408542,7927.6142323479,"1601 Ygnacio Valley Road, Walnut Creek, CA 94598-3194"
188,Kaiser Foundation Hospital - Antioch,A,94531,37.9508418,-121.7749286,7913.1479022267,"4501 Sand Creek Road, Antioch, CA 94531-8687"
189,Kaiser Foundation Hospital - Fremont,A,94538,37.5524244,-121.974401,7933.1253962224,"39400 Paseo Padre Parkway, Fremont, CA 94538-2310"
190,Kaiser Foundation Hospital - Fresno,A,93720,36.8423418,-119.7804757,7836.2638899541,"7300 N. Fresno Ave., Fresno, CA 93720-2941"
191,Kaiser Foundation Hospital - Manteca,A,95337,37.79803,-121.246197,7889.8798802669,"1777 W. Yosemite Avenue, Manteca, CA 95337-5130"
192,Kaiser Foundation Hospital - Modesto,A,95356,37.7065812,-121.0524993,7882.1491565899,"4601 Dale Road, Modesto, CA 95356-9718"
193,Kaiser Foundation Hospital - Redwood City,A,94063,37.4891185,-122.2251548,7947.5221703636,"1100 Veterans Boulevard, Redwood City, CA 94063-2037"
194,Kaiser Foundation Hospital - Roseville,A,95661,38.7474074,-121.2506572,7867.0303731794,"1600 Eureka Road, Roseville, CA 95661-3027"
195,Kaiser Foundation Hospital - San Francisco,A,94115,37.7823277,-122.4432896,7951.350428999,"2425 Geary Boulevard, San Francisco, CA 94115-3358"
196,Kaiser Foundation Hospital - San Jose,A,95119,37.2397615,-121.8002485,7931.8185528942,"250 Hospital Parkway, San Jose, CA 95119-1103"
197,Kaiser Foundation Hospital - San Rafael,A,94903,38.0043293,-122.5546467,7951.4157799899,"99 Montecillo Road, San Rafael, CA 94903-5114"
198,Kaiser Foundation Hospital - Santa Clara,A,95051,37.3358952,-121.99833,7939.6630373861,"700 Lawrence Expressway, Santa Clara, CA 95051-5173"
199,Kaiser Foundation Hospital - Santa Rosa,A,95403,38.47212,-122.7270141,7948.2000126488,"401 Bicentennial Way, Santa Rosa, CA 95403-2149"
200,Kaiser Foundation Hospital - South San Francisco,A,94080,37.6591974,-122.4393133,7954.2312464159,"1200 El Camino Real, South San Francisco, CA 94080-3208"
201,Kaiser Foundation Hospital - Vacaville,A,95688,38.3885135,-121.9380985,7910.5814313028,"1 Quality Drive, Vacaville, CA 95688-9494"
202,Kaiser Foundation Hospital - Vallejo,A,94589,38.12767,-122.2484432,7932.7998981827,"975 Sereno Drive, Vallejo, CA 94589-2441"
203,Kaiser Foundation Hospital - Walnut Creek,A,94596,37.8915785,-122.0588864,7929.065203422,"1425 S. Main Street, Walnut Creek, CA 94596-5318"
204,Kaiser Permanente Fontana Medical Center,A,92335,34.072245,-117.431968,7768.0198238065,"9961 Sierra Avenue, Fontana, CA 92335-6720"
205,Kaiser Permanente Los Angeles Medical Center,A,90027,34.0981604,-118.2954051,7814.8820281927,"4867 Sunset Boulevard, Los Angeles, CA 90027"
206,Kaiser Permanente Moreno Valley Medical Center,A,92555,33.897404,-117.186026,7757.8324860221,"27300 Iris Avenue, Moreno Valley, CA 92555-4800"
207,Kaiser Permanente Ontario Medical Center,A,91761,34.032459,-117.608757,7778.5045914086,"2295 S Vineyard Ave, Ontario, CA 91761"
208,Kaiser Permanente Orange County-Anaheim Medical Center,A,92806,33.852103,-117.8446219,7794.9855344399,"3430 E. LaPalma Ave, Anaheim, CA 92806"
209,Kaiser Permanente Orange County-Irvine Medical Center,A,92618,33.6578508,-117.7743829,7794.888222318,"6650 Alton Parkway, Irvine, CA 92618"
210,Kaiser Permanente San Diego Medical Center,A,92123,32.8297116,-117.1251884,7774.4813109676,"9455 Clairemont Mesa Blvd., San Diego, CA 92123"
211,Kaiser Permanente Zion Medical Center,A,92120,32.7913395,-117.0951878,7773.5113121251,"4647 Zion Avenue, San Diego, CA 92120-2507"
212,Kaweah Health,A,93291,36.3282957,-119.2949631,7822.1093815454,"400 W. Mineral King Avenue, Visalia, CA 93291-6263"
213,Keck Hospital of USC,A,90033,34.0619943,-118.2012607,7810.4437572068,"1500 San Pablo Street, Los Angeles, CA 90033-9857"
214,La Palma Intercommunity Hospital,A,90623,33.847533,-118.038414,7805.7389683795,"7901 Walker Street, La Palma, CA 90623-1722"
215,Loma Linda University Medical Center,A,92354,34.0507571,-117.2639465,7759.19564584,"11234 Anderson Street, Loma Linda, CA 92354"
216,Loma Linda University Medical Center East Campus,A,92354,34.0472104,-117.2515843,7758.5836109238,"25333 Barton Road, Loma Linda, CA 92354"
217,Los Robles Regional Medical Center,A,91360,34.2077675,-118.8830459,7844.7946064584,"215 West Janss Road, Thousand Oaks, CA 91360"
218,Marian Regional Medical Center,A,93454,34.9512414,-120.4133339,7911.834817326,"1400 E. Church Street, Santa Maria, CA 93454-5906"
219,Marshall Medical Center,A,95667,38.7256227,-120.790957,7844.3734155474,"1100 Marshall Way, Placerville, CA 95667"
220,MemorialCare Saddleback Medical Center,A,92653,33.6089013,-117.7087247,7792.2078625993,"24451 Health Center Drive, Laguna Hills, CA 92653-3689"
221,Mercy General Hospital,A,95819,38.5702596,-121.4524082,7881.5565771046,"4001 J Street, Sacramento, CA 95819-3600"
222,Palmdale Regional Medical Center,A,93551,34.5830354,-118.1450788,7796.9678020304,"38600 Medical Center Drive, Palmdale, CA 93551"
223,Palomar Medical Center Poway,A,92064,32.9969733,-117.0560448,7767.5227762507,"15615 Pomerado Road, Poway, CA 92064"
224,Paradise Valley Hospital,A,91950,32.6851132,-117.0828852,7774.7788482481,"2400 E. 4th Street, National City, CA 91950-2099"
225,Petaluma Valley Hospital,A,94954,38.25459,-122.6316537,7948.9596649955,"400 N. McDowell Boulevard, Petaluma, CA 94954-2369"
226,Providence St. Joseph Hospital Orange,A,92868,33.7819985,-117.8652002,7797.4854193424,"1100 West Stewart Drive, Orange, CA 92868-5600"
227,Salinas Valley Memorial Healthcare System,A,93901,36.6593319,-121.646662,7937.8378593383,"450 E. Romie Lane, Salinas, CA 93901-4098"
228,San Dimas Community Hospital,A,91773,34.0976119,-117.8346593,7789.6367351972,"1350 W. Covina Boulevard, San Dimas, CA 91773-3219"
229,Santa Barbara Cottage Hospital,A,93105,34.4299066,-119.7233601,7885.8801444135,"400 W. Pueblo Street, Santa Barbara, CA 93105-4311"
230,Scripps Green Hospital,A,92037,32.8967799,-117.2428136,7779.8129687058,"10666 N. Torrey Pines Rd, La Jolla, CA 92037-1093"
231,Scripps Memorial Hospital of Encinitas,A,92024,33.0369008,-117.2839126,7779.4929233394,"354 Santa Fe Drive, Encinitas, CA 92024-5182"
232,Scripps Memorial Hospital of La Jolla,A,92037,32.8851578,-117.2255426,7779.0641134082,"9888 Genesee Avenue, La Jolla, CA 92037-1200"
233,Scripps Mercy Hospital of San Diego,A,92103,32.7514518,-117.1600534,7777.8789872658,"4077 Fifth Avenue, San Diego, CA 92103-2105"
234,Sharp Chula Vista Medical Center,A,91911,32.6187715,-117.0229286,7772.6339523523,"751 Medical Center Court, Chula Vista, CA 91911-6699"
235,Sharp Coronado Hospital and Healthcare Center,A,92118,32.6944487,-117.1686795,7779.4148573872,"250 Prospect Place, Coronado, CA 92118-1999"
236,Sharp Grossmont Hospital,A,91942,32.7811433,-117.0074328,7768.7862933663,"5555 Grosssmont Center Drive, La Mesa, CA 91942-3019"
237,Sharp Memorial Hospital,A,92123,32.7994945,-117.1542381,7776.6653280371,"7901 Frost Street, San Diego, CA 92123-2701"
238,Shasta Regional Medical Center,A,96001,40.5855146,-122.3877763,7876.4879511094,"1100 Butte Street, Redding, CA 96001-0853"
239,Sherman Oaks Hospital,A,91403,34.1602305,-118.4496328,7822.0797971093,"4929 Van Nuys Boulevard, Sherman Oaks, CA 91403-1702"
240,Sierra Vista Regional Medical Center,A,93405,35.2922246,-120.6658831,7917.7772579967,"1010 Murray Avenue, San Luis Obispo, CA 93405-8800"
241,St. Elizabeth Community Hospital,A,96080,40.1485519,-122.2190196,7879.7077655676,"2550 Sister Mary Columba Drive, Red Bluff, CA 96080-4397"
242,St. Johnâ€™s Hospital Camarillo,A,93010,34.2434645,-119.0198129,7851.5219839106,"2309 Antonio Avenue, Camarillo, CA 93010-1414"
243,St. Joseph's Medical Center of Stockton,A,95204,37.9698676,-121.2887284,7887.9050096389,"1800 N. California Street, Stockton, CA 95204"
244,St. Jude Medical Center,A,92835,33.8941778,-117.9276156,7798.7295582867,"101 E. Valencia Mesa Drive, Fullerton, CA 92835-3875"
245,Stanford Health Care,A,94305,37.4332452,-122.1755633,7946.363199986,"300 Pasteur Drive, Stanford, CA 94305"
246,Sutter Auburn Faith Hospital,A,95602,38.9451031,-121.1000785,7854.6087404405,"11815 Education Street, Auburn, CA 95602-2410"
247,Sutter Santa Rosa Regional Hospital,A,95403,38.4950726,-122.7519949,7948.8652758236,"30 Mark West Springs Rd, Santa Rosa, CA 95403"
248,Twin Cities Community Hospital,A,93465,35.5553302,-120.7197485,7914.7309588889,"1100 Las Tablas Road, Templeton, CA 93465-9704"
249,UC San Diego Health Hillcrest - Hillcrest Medical Center,A,92103,32.754257,-117.1659225,7778.1557457222,"200 West Arbor Drive, San Diego, CA 92103"
250,UC San Diego Health La Jolla - Jacobs Medical Center and Sulpizio Cardiovascular Center,A,92037,32.8785625,-117.225776,7779.1997434609,"9300 Campus Point Drive, La Jolla, CA 92037"
251,UCLA Medical Center of Santa Monica,A,90404,34.0270998,-118.4863064,7826.7622623399,"1250 16th Street, Santa Monica, CA 90404-1249"
252,UCSF Health - Mission Bay,A,94158,37.7648549,-122.3902697,7949.0895435346,"1975 4th St, San Fancisco, CA 94158"
253,UCSF Medical Center Moffitt-Long Hospitals,A,94143,37.7630895,-122.4578144,7952.5719629426,"505 Parnassus Avenue, San Francisco, CA 94143-0296"
254,University of California Irvine Health,A,92868,33.7879885,-117.8901339,7798.7422041712,"101 The City Drive S., Orange, CA 92868-3298"
255,Adventist Health Lodi Memorial,B,95240,38.121858,-121.286652,7884.1161104706,"975 S. Fairmont Avenue, Lodi, CA 95240-5179"
256,Adventist Health Simi Valley,B,93065,34.2892065,-118.745137,7835.6069467763,"2975 N. Sycamore Drive, Simi Valley, CA 93065-1201"
257,Alameda Hospital,B,94501,37.7628157,-122.2534154,7942.170594641,"2070 Clinton Avenue, Alameda, CA 94501-4397"
258,Arrowhead Regional Medical Center,B,92324,34.0740156,-117.351125,7763.5426026358,"400 N. Pepper Avenue, Colton, CA 92324-1819"
259,Bakersfield Memorial Hospital,B,93301,35.3918393,-119.006857,7826.8696147613,"420 34th Street, Bakersfield, CA 93301-2237"
260,California Pacific Medical Center - Mission Bernal Campus,B,94110,37.7470887,-122.4208774,7951.0925697036,"3555 Cesar Chavez, San Francisco, CA 94110-4490"
261,Contra Costa Regional Medical Center,B,94553,38.006764,-122.1327937,7929.9581667006,"2500 Alhambra Avenue, Martinez, CA 94553-3156"
262,Doctors Medical Center of Modesto,B,95350,37.6652146,-120.9972995,7880.3027628703,"1441 Florida Avenue, Modesto, CA 95350-4418"
263,Eden Medical Center,B,94546,37.6983405,-122.0896915,7935.4217308561,"20103 Lake Chabot Road, Castro Valley, CA 94546-5367"
264,El Camino Hospital Los Gatos,B,95032,37.263022,-121.969376,7939.9566926175,"815 Pollard Road, Los Gatos, CA 95032"
265,Huntington Hospital,B,91105,34.133639,-118.152753,7806.3621114004,"100 W. California Boulevard, Pasadena, CA 91105-3097"
266,John Muir Medical Center Concord Campus,B,94520,37.9837249,-122.0347814,7925.5526529673,"2540 East Street, Concord, CA 94520"
267,Kaiser Foundation Hospital - Baldwin Park Medical Center,B,91706,34.0655016,-117.9864524,7798.5950118624,"1011 Baldwin Park Boulevard, Baldwin Park, CA 91706-5806"
268,Kaiser Foundation Hospital - Oakland,B,94611,37.8235195,-122.2582442,7940.9036678616,"3600 Broadway, Oakland, CA 94611-5730"
269,Kaiser Foundation Hospital - Richmond,B,94801,37.93712,-122.3605023,7943.2609016642,"901 Nevin Avenue, Richmond, CA 94801-3143"
270,Kaiser Foundation Hospital - Sacramento,B,95825,38.6018632,-121.3919202,7877.7265123346,"2025 Morse Avenue, Sacramento, CA 95825-2115"
271,Kaiser Foundation Hospital - San Leandro,B,94577,37.7063601,-122.1651409,7939.07328521,"2500 Merced Street, San Leandro, CA 94577-4201"
272,Kaiser Permanente Downey Medical Center,B,90242,33.9192416,-118.1288114,7809.2960235433,"9333 E. Imperial Highway, Downey, CA 90242-2812"
273,Kaiser Permanente Panorama City Medical Center,B,91402,34.2185683,-118.4292711,7819.7930378279,"13651 Willard St, Panorama City, CA 91402-5497"
274,Kaiser Permanente Riverside Medical Center,B,92505,33.9047622,-117.4691755,7773.2937202572,"10800 Magnolia Avenue, Riverside, CA 92505-3000"
275,LOMA LINDA UNIVERSITY MEDICAL CENTER-MURRIETA,B,92563,33.6145875,-117.1691492,7762.2609348417,"28062 Baxter Road, Murrieta, CA 92563"
276,Los Angeles County - Olive View UCLA Medical Center,B,91342,34.3259095,-118.4459572,7818.5410023189,"14445 Olive View Drive, Sylmar, CA 91342-1495"
277,"Martin Luther King, Jr. Community Hospital",B,90059,33.9239277,-118.2451528,7815.5935737171,"1680 East 120th Street, Los Angeles, CA 90059-3026"
278,MemorialCare Orange Coast Medical Center,B,92708,33.7003907,-117.9556226,7804.0605916729,"9920 Talbert Avenue, Fountain Valley, CA 92708-5153"
279,Mercy San Juan Medical Center,B,95608,38.6696228,-121.3140357,7872.1333451506,"6501 Coyle Avenue, Carmichael, CA 95608-0306"
280,Methodist Hospital of Sacramento,B,95823,38.4631737,-121.4163638,7882.3675038282,"7500 Hospital Drive, Sacramento, CA 95823-5477"
281,Mills-Peninsula Medical Center,B,94010,37.5921025,-122.3833423,7953.0508332462,"1501 Trousdale Drive, Burlingame, CA 94010-4506"
282,Mission Hospital Laguna Beach,B,92651,33.5005741,-117.740473,7796.0511026556,"31872 Coast Hwy, Laguna Beach, CA 92651"
283,Natividad Medical Center,B,93906,36.6973764,-121.6331609,7936.2279242479,"1441 Constitution Boulevard, Salinas, CA 93906-3100"
284,NorthBay Medical Center,B,94533,38.2618553,-122.0476112,7919.277429974,"1200 B. Gale Wilson Boulevard, Fairfield, CA 94533-3552"
285,NorthBay VacaValley Hospital,B,95687,38.355856,-121.95196,7912.0960986076,"1000 Nut Tree Road, Vacaville, CA 95687"
286,Northridge Hospital Medical Center-Roscoe Boulevard Campus,B,91325,34.2205406,-118.5338644,7825.4685617092,"18300 Roscoe Boulevard, Northridge, CA 91325-4105"
287,Novato Community Hospital,B,94945,38.0993115,-122.5603633,7949.3020283493,"180 Rowland Way, Novato, CA 94945-5009"
288,Palomar Medical Center Escondido,B,92029,33.1218939,-117.1214691,7768.8522480133,"2185 Citracado Parkway, Escondido, CA 92029"
289,Parkview Community Hospital Medical Center,B,92503,33.9269682,-117.4398166,7771.2498172164,"3865 Jackson Street, Riverside, CA 92503-3998"
290,PIH Health Hospital - Downey,B,90241,33.935296,-118.130298,7809.0605334339,"11500 Brookshire Avenue, Downey, CA 90241"
291,PIH Health Hospital - Whittier,B,90602,33.9690304,-118.0490717,7803.9336004668,"12401 Washington Blvd, Whittier, CA 90602-1099"
292,Providence Little Company of Mary Medical Center Torrance,B,90503,33.8385387,-118.3571537,7823.4426622087,"4101 Torrance Boulevard, Torrance, CA 90503-4698"
293,Providence Mission Hospital Mission Viejo,B,92691,33.5610516,-117.6654654,7790.7382565676,"27700 Medical Center Road, Mission Viejo, CA 92691-6426"
294,Queen of the Valley Medical Center,B,94558,38.3251588,-122.2966229,7930.2695172108,"1000 Trancas Street, Napa, CA 94558-2906"
295,Redlands Community Hospital,B,92373,34.0365372,-117.2051741,7756.2345500619,"350 Terracina Boulevard, Redlands, CA 92373-4897"
296,San Antonio Regional Hospital,B,91786,34.1015661,-117.6378263,7778.7580404396,"999 San Bernardino Road, Upland, CA 91786-4920"
297,San Leandro Hospital,B,94578,37.7122362,-122.1433524,7937.8159901686,"13855 E. 14th Street, San Leandro, CA 94578"
298,Scripps Mercy Hospital of Chula Vista,B,91910,32.633757,-117.083151,7775.7375947812,"435 H Street, Chula Vista, CA 91910"
299,Sequoia Hospital,B,94062,37.4797381,-122.2547914,7949.2713091954,"170 Alameda De Las Pulgas, Redwood City, CA 94062-2799"
300,St. John's Regional Medical Center of Oxnard,B,93030,34.2166424,-119.1556484,7859.4805880916,"1600 N. Rose Avenue, Oxnard, CA 93030-3723"
301,St. Mary's Medical Center,B,94117,37.7740462,-122.4536477,7952.0851571626,"450 Stanyan Street, San Francisco, CA 94117-1079"
302,Stanford Health Care - ValleyCare,B,94588,37.6944052,-121.8802082,7924.8201546488,"5555 W. Las Positas Boulevard, Pleasanton, CA 94588-4000"
303,Sutter Amador Hospital,B,95642,38.3504899,-120.7644312,7852.0461497655,"200 Mission Boulevard, Jackson, CA 95642-2132"
304,"Sutter Medical Center, Sacramento",B,95816,38.5708904,-121.4695318,7882.405265283,"2825 Capitol Ave, Sacramento, CA 95816-5616"
305,Sutter Roseville Medical Center,B,95661,38.7662511,-121.2492234,7866.4958298894,"1 Medical Plaza Dr, Roseville, CA 95661-3037"
306,Sutter Tracy Community Hospital,B,95376,37.7441359,-121.4340134,7900.7916486,"1420 N. Tracy Boulevard, Tracy, CA 95376-3497"
307,Torrance Memorial Medical Center,B,90505,33.8119157,-118.3434945,7823.2209482665,"3330 Lomita Boulevard, Torrance, CA 90505-5002"
308,University of California Davis Medical Center,B,95817,38.5549383,-121.4567508,7882.1529401718,"2315 Stockton Boulevard, Sacramento, CA 95817-2282"
309,University of California Ronald Reagan UCLA Medical Center,B,90095,34.0664433,-118.4463136,7823.7819526322,"757 Westwood Plaza, Los Angeles, CA 90095-8358"
310,USC Verdugo Hills Hospital,B,91208,34.2045351,-118.216049,7808.4152774073,"1812 Verdugo Boulevard, Glendale, CA 91208-1409"
311,Whittier Hospital Medical Center,B,90605,33.9502712,-118.0040225,7801.8285167267,"9080 Colima Road, Whittier, CA 90605"
312,Woodland Memorial Hospital,B,95695,38.664038,-121.79212,7896.3503329628,"1325 Cottonwood Street, Woodland, CA 95695-5199"
313,Adventist Health - Delano,C,93215,35.7622854,-119.2392519,7831.4006535668,"1401 Garces Highway, Delano, CA 93215-3690"
314,Adventist Health and Rideout,C,95901,39.1381926,-121.5940156,7874.576109214,"726 4th Street, Marysville, CA 95901-5600"
315,Adventist Health Sonora,C,95370,37.977798,-120.371497,7840.8232560924,"1000 Greenley Road, Sonora, CA 95370"
316,Adventist Health White Memorial,C,90033,34.0492579,-118.2172453,7811.5731972737,"1720 Cesar E. Chavez Avenue, Los Angeles, CA 90033-2481"
317,AHMC Anaheim Regional Medical Center,C,92801,33.8481751,-117.9345264,7800.0103754626,"1111 W. La Palma Avenue, Anaheim, CA 92801-2881"
318,AHMC Seton Medical Center,C,94015,37.6799404,-122.4742007,7955.490392617,"1900 Sullivan Avenue, Daly City, CA 94015-2229"
319,Alta Bates Summit Medical Center,C,94609,37.822057,-122.262747,7941.1693134899,"350 Hawthorne Avenue, Oakland, CA 94609"
320,Alvarado Hospital Medical Center,C,92120,32.7766415,-117.0573188,7771.6623008574,"6655 Alvarado Road, San Diego, CA 92120-5296"
321,Anaheim Global Medical Center,C,92805,33.8196827,-117.9097961,7799.20625843,"1025 S. Anaheim Boulevard, Anaheim, CA 92805-5806"
322,Antelope Valley Hospital,C,93534,34.6884634,-118.15843,7795.574457736,"1600 W. Avenue J, Lancaster, CA 93534-2894"
323,Bakersfield Heart Hospital,C,93308,35.3848085,-119.0399564,7828.7931719097,"3001 Sillect Avenue, Bakersfield, CA 93308-6337"
324,California Hospital Medical Center,C,90015,34.0373956,-118.2657814,7814.4701450129,"1401 S. Grand Avenue, Los Angeles, CA 90015-3010"
325,California Pacific Medical Center - Davies Campus,C,94114,37.768847,-122.4354438,7951.2890805483,"45 Castro St, San Francisco, CA 94114"
326,Cedars-Sinai Marina Del Rey Hospital,C,90292,33.9821449,-118.4392262,7825.0828931249,"4650 Lincoln Boulevard, Marina Del Rey, CA 90292-6360"
327,Cedars-Sinai Medical Center,C,90048,34.075153,-118.3802766,7819.9905550323,"8700 Beverly Boulevard, Los Angeles, CA 90048-1865"
328,Chinese Hospital,C,94133,37.7954715,-122.4091608,7949.2845066669,"845 Jackson Street, San Francisco, CA 94133-4899"
329,Clovis Community Medical Center,C,93611,36.8390429,-119.660354,7830.0537153447,"2755 Herndon Avenue, Clovis, CA 93611-6800"
330,COMMUNITY HOSPITAL OF SAN BERNARDINO,C,92411,34.1314087,-117.3217772,7760.8261512153,"1805 MEDICAL CENTER DRIVE, SAN BERNARDINO, CA 92411-1214"
331,Community Memorial Hospital,C,93003,34.2745632,-119.2579873,7863.8550854388,"147 N. Brent Street, Ventura, CA 93003-2854"
332,Corona Regional Medical Center,C,92882,33.8727795,-117.5683133,7779.3702801597,"800 S. Main Street, Corona, CA 92882-3420"
333,Dameron Hospital,C,95203,37.9615265,-121.3019237,7888.7800719971,"525 W. Acacia Street, Stockton, CA 95203-2484"
334,Desert Regional Medical Center,C,92262,33.8385169,-116.54408,7723.4964972571,"1150 N. Indian Canyon Drive, Palm Springs, CA 92262-4872"
335,Dignity Health St. Bernardine Medical Center,C,92404,34.1348371,-117.2769883,7758.299957933,"2101 N. Waterman Avenue, San Bernardino, CA 92404-4836"
336,Dominican Hospital,C,95065,36.9901663,-121.9836669,7947.3406232932,"1555 Soquel Drive, Santa Cruz, CA 95065-1794"
337,East Los Angeles Doctors Hospital,C,90023,34.0237682,-118.1841496,7810.264569829,"4060 Whittier Boulevard, Los Angeles, CA 90023-2526"
338,El Centro Regional Medical Center,C,92243,32.7803961,-115.5683905,7688.0487548025,"1415 Ross Avenue, El Centro, CA 92243-4398"
339,Emanate Health Foothill Presbyterian Hospital,C,91741,34.1327654,-117.8713435,7790.9584500477,"250 South Grand Avenue, Glendora, CA 91741-4218"
340,Emanate Health Inter-Community Hospital,C,91723,34.0878738,-117.8935005,7793.055781946,"210 West San Bernardino Road, Covina, CA 91723-1901"
341,Emanate Health Queen of the Valley Hospital,C,91790,34.0642264,-117.9453122,7796.3631854217,"1115 South Sunset Avenue, West Covina, CA 91790-3940"
342,Emanuel Medical Center,C,95382,37.511639,-120.837996,7875.7517232098,"825 Delbon Avenue, Turlock, CA 95382-2016"
343,Fountain Valley Regional Hospital and Medical Center,C,92708,33.7150242,-117.9357865,7802.6813995416,"17100 Euclid Street, Fountain Valley, CA 92708-4043"
344,Glendale Memorial Hospital and Health Center,C,91204,34.1281181,-118.2569119,7812.1761938894,"1420 S. Central Avenue, Glendale, CA 91204-2508"
345,Good Samaritan Hospital,C,93308,35.4117079,-119.0395895,7828.2044935995,"901 Olive Drive, Bakersfield, CA 93308-4144"
346,Good Samaritan Hospital of San Jose,C,95124,37.2520715,-121.9463305,7939.0384587902,"2425 Samaritan Drive, San Jose, CA 95124-3997"
347,Greater El Monte Community Hospital,C,91733,34.0481521,-118.043372,7802.0597095764,"1701 Santa Anita Avenue, South El Monte, CA 91733-3411"
348,Hi-Desert Medical Center,C,92252,34.1326967,-116.2762479,7703.275403181,"6601 White Feather Road, Joshua Tree, CA 92252-6601"
349,Highland Hospital,C,94602,37.7995621,-122.2329473,7940.2128970261,"1411 E. 31st Street, Oakland, CA 94602"
350,Hollywood Presbyterian Medical Center,C,90027,34.0962209,-118.2905784,7814.6563670271,"1300 N. Vermont Avenue, Los Angeles, CA 90027-0069"
351,Huntington Beach Hospital,C,92647,33.70364,-117.986656,7805.7081466132,"17772 Beach Boulevard, Huntington Beach, CA 92647-6819"
352,Inland Valley Medical Center,C,92595,33.5916679,-117.2375905,7766.4823312619,"36485 Inland Valley Drive, Wildomar, CA 92595-9700"
353,JFK Memorial Hospital,C,92201,33.7062168,-116.2354774,7708.8415575605,"47111 Monroe Street, Indio, CA 92201-6799"
354,Kaiser Foundation Hospital - South Sacramento,C,95823,38.4699104,-121.4216412,7882.4690424266,"6600 Bruceville Road, Sacramento, CA 95823-4671"
355,Kern Medical Center,C,93306,35.3828044,-118.9700927,7825.088538245,"1700 Mount Vernon Avenue, Bakersfield, CA 93306-4018"
356,Lakewood Regional Medical Center,C,90712,33.8599375,-118.1486551,7811.5575626511,"3700 E South Street, Lakewood, CA 90712-1498"
357,Lompoc Valley Medical Center,C,93436,34.6411375,-120.4395191,7920.0519761525,"1515 E. Ocean Avenue, Lompoc, CA 93436-7092"
358,Long Beach Memorial Medical Center,C,90806,33.8083605,-118.1873236,7814.7023779919,"2801 Atlantic Ave., Long Beach, CA 90806-1701"
359,Los Alamitos Medical Center,C,90720,33.8043758,-118.0671158,7808.1662854722,"3751 Katella Avenue, Los Alamitos, CA 90720-3164"
360,Los Angeles County - Harbor UCLA Medical Center,C,90509,33.8297109,-118.2949821,7820.2005677653,"1000 W. Carson Street, Torrance, CA 90509"
361,Los Angeles County University of Southern California Medical Center,C,90033,34.059442,-118.2081017,7810.8694929697,"2051 Marengo St., Los Angeles, CA 90033-1029"
362,Mad River Community Hospital,C,95521,40.8963361,-124.0916707,7950.0472984765,"3800 Janes Road, Arcata, CA 95521-4788"
363,Madera Community Hospital,C,93637,36.9440246,-120.0443662,7847.7528974599,"1250 E. Almond Avenue, Madera, CA 93637-5696"
364,MarinHealth Medical Center,C,94904,37.9474108,-122.5358908,7951.9023903598,"250 Bon Air Road, Greenbrae, CA 94904-1784"
365,Memorial Hospital Los Banos,C,93635,37.0640934,-120.8591356,7887.3651559963,"520 West I St, Los Banos, CA 93635-4211"
366,Memorial Hospital of Gardena,C,90247,33.8929624,-118.2948029,7818.9351923337,"1145 W. Redondo Beach Boulevard, Gardena, CA 90247-3528"
367,Memorial Medical Center,C,95355,37.6687592,-120.9737865,7879.011186202,"1700 Coffee Road, Modesto, CA 95355-2869"
368,Menifee Global Medical Center,C,92585,33.7194657,-117.1645046,7760.0212456398,"28400 McCall Boulevard, Sun City, CA 92585-9537"
369,Mercy Hospital - Downtown,C,93301,35.3731773,-119.0271665,7828.3531198187,"2215 Truxtun Avenue, Bakersfield, CA 93301"
370,Mercy Hospital - Southwest,C,93311,35.3511237,-119.1124137,7833.3920966921,"400 Old River Road, Bakersfield, CA 93311"
371,Mercy Hospital of Folsom,C,95630,38.6701979,-121.1460932,7863.6476234431,"1650 Creekside Drive, Folsom, CA 95630-3405"
372,Mercy Medical Center,C,95340,37.339977,-120.4672958,7860.6347252946,"333 Mercy Avenue, Merced, CA 95340-8319"
373,Methodist Hospital of Southern California,C,91007,34.1344524,-118.0417643,7800.2657845,"300 W. Huntington Drive, Arcadia, CA 91007-3473"
374,Mission Community Hospital,C,91402,34.2209059,-118.4567848,7821.2496078346,"14850 Roscoe Boulevard, Panorama City, CA 91402"
375,Montclair Hospital Medical Center,C,91763,34.0787027,-117.6959434,7782.3938039727,"5000 San Bernardino Street, Montclair, CA 91763-2326"
376,Monterey Park Hospital,C,91754,34.049413,-118.1383146,7807.2422226,"900 S. Atlantic Boulevard, Monterey Park, CA 91754-4780"
377,O'Connor Hospital,C,95128,37.3277552,-121.9383789,7936.7818648375,"2105 Forest Avenue, San Jose, CA 95128-1471"
378,Oroville Hospital,C,95966,39.5062597,-121.5410928,7862.7138992493,"2767 Olive Highway, Oroville, CA 95966-6118"
379,PIH Health Good Samaritan Hospital,C,90017,34.0541988,-118.2650593,7814.0959341449,"1225 Wilshire Boulevard, Los Angeles, CA 90017-2395"
380,Placentia-Linda Hospital,C,92870,33.887072,-117.8434267,7794.2374839229,"1301 N. Rose Drive, Placentia, CA 92870-3899"
381,Pomona Valley Hospital Medical Center,C,91767,34.0770077,-117.7514976,7785.476536438,"1798 N. Garey Avenue, Pomona, CA 91767-2918"
382,Providence Cedars-Sinai Tarzana Medical Center,C,91356,34.1704136,-118.5322725,7826.393641885,"18321 Clark Street, Tarzana, CA 91356-3521"
383,Providence Holy Cross Medical Center,C,91345,34.280154,-118.460335,7820.2491414911,"15031 Rinaldi Street, Mission Hills, CA 91345-1285"
384,Providence Little Company of Mary Medical Center San Pedro,C,90732,33.7383615,-118.3050431,7822.5643022408,"1300 W. Seventh Street, San Pedro, CA 90732-3505"
385,Providence Saint John's Health Center,C,90404,34.0307388,-118.4796069,7826.3221592869,"2121 Santa Monica Boulevard, Santa Monica, CA 90404-2303"
386,Providence Saint Joseph Medical Center,C,91505,34.1558174,-118.3281063,7815.5198494302,"501 South Buena Vista Street, Burbank, CA 91505-4818"
387,Rancho Springs Medical Center,C,92562,33.5589878,-117.1839316,7764.1288888544,"25500 Medical Center Drive, Murrieta, CA 92562-5965"
388,Regional Medical Center of San Jose,C,95116,37.3623125,-121.8493151,7931.3619433553,"225 N. Jackson Avenue, San Jose, CA 95116-1691"
389,Riverside Community Hospital,C,92501,33.9767808,-117.3816002,7767.0876794372,"4445 Magnolia Avenue, Riverside, CA 92501-4199"
390,Riverside University Health System - Medical Center,C,92555,33.9121777,-117.1960044,7758.1013456333,"26520 Cactus Avenue, Moreno Valley, CA 92555-3911"
391,Saint Agnes Medical Center,C,93720,36.8352022,-119.7655278,7835.642105261,"1303 E. Herndon Avenue, Fresno, CA 93720-3309"
392,Saint Francis Memorial Hospital,C,94109,37.7896472,-122.4166422,7949.8110858646,"900 Hyde Street, San Francisco, CA 94109-4899"
393,San Gabriel Valley Medical Center,C,91776,34.1007416,-118.1058755,7804.4465600885,"438 W. Las Tunas Drive, San Gabriel, CA 91776-1216"
394,San Gorgonio Memorial Hospital,C,92220,33.9317494,-116.9459031,7743.9418503176,"600 N. Highland Springs Avenue, Banning, CA 92220-3046"
395,San Ramon Regional Medical Center,C,94583,37.775892,-121.958214,7926.7972772388,"6001 Norris Canyon Road, San Ramon, CA 94583-5400"
396,Santa Rosa Memorial Hospital,C,95405,38.4437611,-122.701141,7947.6269964674,"1165 Montgomery Drive, Santa Rosa, CA 95405-4897"
397,Sierra Nevada Memorial Hospital,C,95945,39.2281029,-121.0468913,7844.9980045863,"155 Glasson Way, Grass Valley, CA 95945-5723"
398,Sierra View Medical Center,C,93257,36.069563,-119.027485,7813.5407424999,"465 W. Putnam Avenue, Porterville, CA 93257-3320"
399,South Bay Medical Center,C,90710,33.7899325,-118.2947645,7820.9772220264,"25825 South Vermont Avenue, Harbor City, CA 90710-3599"
400,South Coast Global Medical Center,C,92704,33.7110583,-117.8851902,7799.9689410081,"2701 S. Bristol Street, Santa Ana, CA 92704-6201"
401,St. Francis Medical Center,C,90262,33.930826,-118.203228,7813.1544649625,"3630 E. Imperial Highway, Lynwood, CA 90262-2636"
402,St. Joseph Hospital of Eureka,C,95501,40.7839228,-124.1422119,7955.6086110978,"2700 Dolbeer Street, Eureka, CA 95501-4799"
403,St. Louise Regional Hospital,C,95020,37.0365453,-121.5713901,7924.9101804855,"9400 No Name Uno, Gilroy, CA 95020-3528"
404,St. Mary Medical Center of Long Beach,C,90813,33.7797822,-118.1863138,7815.2108281748,"1050 Linden Avenue, Long Beach, CA 90813-3393"
405,St. Rose Hospital,C,94545,37.6337041,-122.087952,7936.9306712998,"27200 Calaroga Avenue, Hayward, CA 94545-4383"
406,Sutter Davis Hospital,C,95616,38.5625729,-121.7711666,7897.8234312372,"2000 Sutter Place, Davis, CA 95616-6201"
407,Sutter East Bay Hospitals dba Alta Bates Summit Medical Center Alta Bates Campus,C,94705,37.855928,-122.257304,7940.0473791556,"2450 Ashby Avenue, Berkeley, CA 94705"
408,Sutter Solano Medical Center,C,94589,38.131156,-122.2374074,7932.1536141508,"300 Hospital Drive, Vallejo, CA 94589-2517"
409,Temecula Valley Hospital,C,92592,33.4811362,-117.1060989,7761.280638692,"31700 Temecula Parkway, Temecula, CA 92592-5896"
410,Tri-City Medical Center,C,92056,33.1851545,-117.2902595,7777.0683024146,"4002 Vista Way, Oceanside, CA 92056-4506"
411,Valley Presbyterian Hospital,C,91405,34.194945,-118.46319,7822.1225460466,"15107 Vanowen Street, Van Nuys, CA 91405"
412,Victor Valley Global Medical Center,C,92395,34.528167,-117.293911,7751.6361846145,"15248 Eleventh Street, Victorville, CA 92395"
413,Washington Hospital Healthcare System,C,94538,37.55726,-121.9797604,7933.2809309985,"2000 Mowry Avenue, Fremont, CA 94538-1746"
414,Watsonville Community Hospital,C,95076,36.9271746,-121.7930016,7939.0064237663,"75 Nielson Street, Watsonville, CA 95076-2468"
415,West Anaheim Medical Center,C,92804,33.825427,-117.9947617,7803.7709039924,"3033 W. Orange Avenue, Anaheim, CA 92804"
416,West Hills Hospital and Medical Center,C,91307,34.2029255,-118.6287791,7831.0101588122,"7300 Medical Center Drive, West Hills, CA 91307-1901"
417,West Los Angeles Medical Center,C,90034,34.0383466,-118.3759001,7820.48711793,"6041 Cadillac Avenue, Los Angeles, CA 90034-1702"
418,Woodland Hills Medical Center,C,91367,34.1701721,-118.5902842,7829.5697500929,"5601 De Soto Avenue, Woodland Hills, CA 91367"
419,Zuckerberg San Francisco General Hospital and Trauma Center,C,94110,37.7558047,-122.4044432,7950.037623362,"1001 Potrero Avenue, San Francisco, CA 94110-3594"
420,Beverly Hospital,D,90640,34.015015,-118.100636,7805.856301851,"309 W. Beverly Boulevard, Montebello, CA 90640-4308"
421,Chapman Global Medical Center,D,92869,33.788633,-117.8258852,7795.190181771,"2601 E. Chapman Avenue, Orange, CA 92869-3206"
422,Coast Plaza Hospital,D,90650,33.9127726,-118.0988257,7807.7761325295,"13100 Studebaker Road, Norwalk, CA 90650-2531"
423,Community Hospital of Huntington Park,D,90255,33.9896228,-118.2241554,7813.1370147507,"2623 E. Slauson Avenue, Huntington Park, CA 90255-2900"
424,Community Regional Medical Center,D,93721,36.7428148,-119.7840085,7838.6783739007,"2823 Fresno Street, Fresno, CA 93721-1324"
425,Doctors Hospital of Manteca,D,95336,37.80155,-121.197502,7887.3032409973,"1205 E. North Street, Manteca, CA 95336-4900"
426,Hemet Global Medical Center,D,92543,33.7501053,-116.9601344,7748.1469436119,"1117 E. Devonshire Avenue, Hemet, CA 92543-3083"
427,Los Angeles Community Hospital,D,90023,34.0192887,-118.1866586,7810.4910739235,"4081 E. Olympic Boulevard, Los Angeles, CA 90023-3330"
428,Mercy Medical Center of Redding,D,96001,40.57182,-122.395252,7877.2115063695,"2175 Rosaline Avenue, Redding, CA 96001"
429,Orange County Global Medical Center,D,92705,33.7542839,-117.8328006,7796.2395021913,"1001 N. Tustin Avenue, Santa Ana, CA 92705-3577"
430,San Mateo Medical Center,D,94403,37.5312682,-122.2992982,7950.2702736741,"222 W. 39th Avenue, San Mateo, CA 94403-4398"
431,Santa Clara Valley Medical Center,D,95128,37.3128688,-121.9328811,7936.8628646663,"751 S. Bascom Avenue, San Jose, CA 95128-2604"
432,Santa Paula Hospital,D,93061,34.3655106,-119.0651899,7851.4751357387,"825 N 10th St, Santa Paula, CA 93061"
433,Southern California Hospital at Culver City,D,90232,34.0232001,-118.3969128,7821.941667728,"3828 Delmas Terrace, Culver City, CA 90232-6806"
434,Southern California Hospital at Hollywood,D,90028,34.0964254,-118.3252367,7816.5505488189,"6245 De Longpre Avenue, Los Angeles, CA 90028"
435,St Mary Medical Center,D,92307,34.5418476,-117.2655636,7749.8223887038,"18300 Highway 18, Apple Valley, CA 92307-2206"
436,Sutter Coast Hospital,D,95531,41.7736843,-124.194008,7930.115342005,"800 East Washington Blvd., Crescent City, CA 95531-8359"
437,Sutter Delta Medical Center,D,94509,37.9825884,-121.8029543,7913.7928430707,"3901 Lone Tree Way, Antioch, CA 94509-6253"
438,Ventura County Medical Center,D,93003,34.2771994,-119.2529832,7863.5278340661,"300 Hillmont Avenue, Ventura, CA 93003-3099"
439,Barstow Community Hospital,F,92311,34.892431,-117.017066,7729.487408737,"820 East Mountain View Street, Barstow, CA 92311-3004"
440,Henry Mayo Newhall Hospital,F,91355,34.4214827,-118.5632206,7822.9985710016,"23845 McBean Parkway, Valencia, CA 91355-2083"
441,Pacifica Hospital of the Valley,F,91352,34.2405259,-118.3960912,7817.5381463383,"9449 San Fernando Road, Sun Valley, CA 91352-1421"
442,Pioneers Memorial Hospital,F,92227,32.9591125,-115.5539066,7684.1328704961,"207 W. Legion Road, Brawley, CA 92227-7780"
443,San Joaquin General Hospital,F,95231,37.8867135,-121.2826314,7889.6039958681,"500 W. Hospital Road, French Camp, CA 95231-9693"
444,College Medical Center,G,90806,33.8069502,-118.1928532,7815.0344258869,"2776 Pacific Ave, Long Beach, CA 90806"
445,Sonoma Valley Hospital,G,95476,38.2881092,-122.4651441,7939.7090360439,"347 Andrieux Street, Sonoma, CA 95476-6811"
446,Charlotte Hungerford Hospital,A,06790,41.7915265,-73.1338228,5354.9640260652,"540 Litchfield Street, Torrington, CT 06790-0988"
447,Day Kimball Hospital,A,06260,41.909204,-71.914523,5295.225674792,"320 Pomfret Street, Putnam, CT 06260-0901"
448,Hartford Hospital,A,06102,41.7541227,-72.6791793,5331.4957345246,"80 Seymour Street, Hartford, CT 06102-5037"
449,Johnson Memorial Hospital,A,06076,41.9778443,-72.3919664,5320.2097592999,"201 Chestnut Hill Road, Stafford Springs, CT 06076-4005"
450,Middlesex Hospital,A,06457,41.5544714,-72.6470639,5327.0701730371,"28 Crescent Street, Middletown, CT 06457-3650"
451,Stamford Health,A,06904,41.0558536,-73.5538648,5366.4407035919,"1 Hospital Plaza, Stamford, CT 06904-9317"
452,The Hospital of Central Connecticut,A,06052,41.6610409,-72.7869415,5335.6364228863,"100 Grand Street, New Britain, CT 06052-2017"
453,The William W. Backus Hospital,A,06360,41.5430114,-72.0879807,5298.6204486024,"326 Washington Street, Norwich, CT 06360-2733"
454,"University of Connecticut Health Center, John Dempsey Hospital",A,06032,41.7304054,-72.7906181,5336.7893402671,"263 Farmington Avenue, Farmington, CT 06032-3802"
455,Bridgeport Hospital,B,06610,41.1887903,-73.1658783,5348.3981796697,"267 Grant Street, Bridgeport, CT 06610-2805"
456,Bridgeport Hospital Milford Campus,B,06460,41.2165182,-73.0653002,5343.6469712759,"300 Seaside Avenue, Milford, CT 06460-4603"
457,Bristol Health,B,06010,41.6757272,-72.936043,5343.3786296606,"41 Brewster Road, Bristol, CT 06010"
458,Danbury Hospital,B,06810,41.4050857,-73.446289,5365.5779584786,"24 Hospital Avenue, Danbury, CT 06810-6099"
459,Griffin Hospital,B,06418,41.3352614,-73.0892349,5346.4799046376,"130 Division Street, Derby, CT 06418-1326"
460,MidState Medical Center,B,06451,41.5493063,-72.8011451,5334.8003851658,"435 Lewis Avenue, Meriden, CT 06451-2101"
461,St. Francis Hospital & Medical Center,B,06105,41.7749634,-72.6984118,5332.7588406858,"114 Woodland Street, Hartford, CT 06105-1208"
462,"St. Vincent's Medical Center Holdings, Inc, DBA",B,06606,41.201187,-73.2016535,5350.3894925424,"2800 Main Street, Bridgeport, CT 06606-4292"
463,Windham Community Memorial Hospital,B,06226,41.7173432,-72.2259329,5308.1056332108,"112 Mansfield Avenue, Willimantic, CT 06226-2040"
464,Greenwich Hospital,C,06830,41.0345475,-73.6302569,5370.0694227132,"5 Perryridge Road, Greenwich, CT 06830-6364"
465,Lawrence & Memorial Hospital,C,06320,41.3363078,-72.1056047,5296.5271662593,"365 Montauk Avenue, New London, CT 06320-4769"
466,Manchester Memorial Hospital,C,06040,41.7818795,-72.5255571,5324.1382950028,"71 Haynes Street, Manchester, CT 06040-4188"
467,New Milford Hospital,C,06776,41.5807756,-73.4100101,5366.0838847732,"21 Elm Street, New Milford, CT 06776-2993"
468,Norwalk Hospital,C,06850,41.1111249,-73.4222417,5360.4428607733,"34 Maple Street, Norwalk, CT 06850-3894"
469,Saint Mary's Hospital,C,06712,41.5527881,-73.0369765,5346.7963462412,"56 Franklin Street, Waterbury, CT 06712-1281"
470,Sharon Hospital,C,06069,41.8810518,-73.4814997,5373.7264677352,"50 Hospital Hill Road, Sharon, CT 06069-0789"
471,Waterbury Hospital,C,06708,41.5594542,-73.0594815,5348.0280633493,"64 Robbins Street, Waterbury, CT 06708-2600"
472,Yale New Haven Hospital - Saint Raphael Campus,C,06511,41.3102538,-72.9431532,5338.7082296594,"1450 Chapel Street, New Haven, CT 06511-1450"
473,Yale-New Haven Hospital,C,06510,41.3045436,-72.9357954,5338.2556410818,"20 York Street, New Haven, CT 06510-3202"
474,Rockville General Hospital,G,06066,41.8661355,-72.4504652,5321.5535787524,"31 Union St, Vernon, CT 06066"
475,Sibley Memorial Hospital,B,20016,38.9365582,-77.1092589,5527.6715750992,"5255 Loughboro Road NW, Washington, DC 20016-2695"
476,George Washington University Hospital,C,20037,38.9013368,-77.0507854,5524.2133996787,"900 23rd Street NW, Washington, DC 20037-2377"
477,MedStar Georgetown University Hospital,C,20007,38.9114532,-77.0752748,5525.6163578908,"3800 Reservoir Road NW, Washington, DC 20007-2197"
478,MedStar Washington Hospital Center,C,20010,38.9295004,-77.0144985,5522.5613727059,"110 Irving Street NW, Washington, DC 20010-2975"
479,Howard University Hospital,F,20060,38.9177,-77.021928,5522.8397239399,"2041 Georgia Avenue NW, Washington, DC 20060"
480,United Medical Center,G,20032,38.8359393,-76.9849936,5520.0638181766,"1310 Southern Avenue SE, Washington, DC 20032-4699"
481,Bayhealth Hospital Sussex Campus,A,19963,38.8868357,-75.3911438,5435.8574339474,"100 Wellness Way, Milford, DE 19963"
482,Beebe Healthcare,B,19958,38.7720274,-75.1438834,5421.4362511358,"424 Savannah Road, Lewes, DE 19958-0226"
483,Bayhealth Kent Campus,C,19901,39.1512959,-75.5236202,5445.8206604717,"640 South State Street, Dover, DE 19901-3530"
484,Christiana Care Health System - Christiana Hospital,C,19718,39.6878859,-75.668995,5459.4456353017,"4755 Ogletown-Stanton Road, Newark, DE 19718-0002"
485,Christiana Care Health System - Wilmington Hospital,C,19801,39.7512591,-75.5502188,5453.9251523546,"501 W. 14th St., Wilmington, DE 19801"
486,Saint Francis Hospital,C,19805,39.7501741,-75.5670506,5454.7951741263,"701 North Clayton Street, Wilmington, DE 19805-0500"
487,TidalHealth Nanticoke,C,19973,38.6422067,-75.6046615,5444.5099457505,"801 Middleford Road, Seaford, DE 19973-3698"
488,East Georgia Regional Medical Center,A,30458,32.414409,-81.770256,5738.5745917589,"1499 Fair Road, Statesboro, GA 30458"
489,Emanuel Medical Center,A,30401,32.5924173,-82.3476473,5773.0429451795,"117 Kite Road, Swainsboro, GA 30401-3231"
490,Emory Johns Creek Hospital,A,30097,34.0667005,-84.1764319,5884.979167302,"6325 Hospital Parkway, Johns Creek, GA 30097"
491,Fairview Park Hospital,A,31021,32.5322896,-82.9504767,5807.7732702624,"200 Industrial Boulevard, Dublin, GA 31021-2997"
492,Floyd Medical Center,A,30165,34.2594562,-85.1793453,5942.9308665324,"304 Turner McCall Boulevard SW, Rome, GA 30165-2734"
493,Grady General Hospital,A,39828,30.8639473,-84.1991393,5874.2291701839,"1155 5th Street SE, Cairo, GA 39828-0360"
494,Memorial Satilla Health,A,31501,31.2267292,-82.3482876,5766.3966291336,"1900 Tebeau Street, Waycross, GA 31501-5246"
495,Perry Hospital,A,31069,32.45961,-83.709672,5851.6114909951,"1120 Morningside Drive, Perry, GA 31069-2906"
496,Phoebe Putney Memorial Hospital,A,31701,31.5901236,-84.1576437,5874.4293091108,"417 Third Ave, Albany, GA 31701-1828"
497,Piedmont Athens Regional Medical Center,A,30606,33.9611872,-83.3982944,5840.0555822625,"1199 Prince Avenue, Athens, GA 30606-2793"
498,Piedmont Augusta Hospital,A,30901,33.4707204,-81.9830717,5756.5241096236,"1350 Walton Way, Augusta, GA 30901-2629"
499,Piedmont Augusta Hospital Summerville Campus,A,30904,33.465676,-82.018268,5758.5196317563,"2260 Wrightsboro Road, Augusta, GA 30904-4726"
500,Piedmont Columbus Regional Northside,A,31909,32.5345231,-84.9511663,5924.1281840649,"100 Frist Court, Columbus, GA 31909"
501,Piedmont Macon Medical Center,A,31217,32.8472566,-83.6179294,5847.8861152263,"350 HOSPITAL DR, Macon, GA 31217-3871"
502,Piedmont Macon North Hospital,A,31210,32.8715199,-83.6945317,5852.424669627,"400 CHARTER BLVD, Macon, GA 31210-4853"
503,Piedmont Mountainside Hospital,A,30143,34.4461105,-84.4471314,5901.8804869971,"1266 Highway 515 S., Jasper, GA 30143"
504,Piedmont Newnan Hospital,A,30265,33.3593908,-84.7548528,5915.5486091361,"745 Poplar Road, Newnan, GA 30265"
505,Southeast Georgia Health System - Camden Campus,A,31558,30.7808251,-81.6145249,5720.8283901364,"2000 Dan Proctor Drive, St. Marys, GA 31558-3810"
506,Wellstar Paulding Hospital,A,30141,33.9024313,-84.7911395,5919.5318398335,"2518 Jimmy Lee Smith Parkway, Hiram, GA 30141"
507,AdventHealth Gordon,B,30701,34.5101323,-84.9262881,5929.3650708526,"1035 Red Bud Road, Calhoun, GA 30701-2082"
508,AdventHealth Redmond,B,30165,34.2769931,-85.1949096,5943.8759179709,"501 Redmond Road NW, Rome, GA 30165-1415"
509,Atrium Health Navicent Baldwin,B,31061,33.0896828,-83.2453926,5827.381987602,"821 North Cobb Street, Milledgeville, GA 31061-2351"
510,Coffee Regional Medical Center,B,31533,31.509617,-82.8634494,5798.0350211441,"1101 Ocilla Road, Douglas, GA 31533-3617"
511,Colquitt Regional Medical Center,B,31768,31.1259475,-83.7830887,5850.6046191838,"3131 South Main ST, Moultrie, GA 31768-6701"
512,Doctors Hospital of Augusta,B,30909,33.48297,-82.0901567,5762.7420866311,"3651 WHEELER RD, Augusta, GA 30909-6521"
513,Dorminy Medical Center,B,31750,31.697967,-83.259581,5822.1256680384,"200 Perry House Road, Fitzgerald, GA 31750"
514,Emory Hillandale Hospital,B,30058,33.7036504,-84.1469748,5881.8647587088,"2801 DeKalb Medical Parkway, Lithonia, GA 30058"
515,Emory St. Joseph's Hospital,B,30342,33.9085258,-84.3495776,5894.2696872621,"5665 Peachtree Dunwoody Road, Atlanta, GA 30342-1764"
516,Memorial Health University Medical Center,B,31404,32.0318516,-81.0915792,5696.9177165354,"4700 Waters Avenue, Savannah, GA 31404"
517,Memorial Hospital and Manor,B,39819,30.9029469,-84.5522362,5895.2750034962,"1500 East Shotwell Street, Bainbridge, GA 39819-4256"
518,Phoebe Sumter Medical Center,B,31719,32.0666637,-84.2554928,5881.924079868,"126 Highway 280 West, Americus, GA 31719"
519,Piedmont Cartersville Medical Center,B,30120,34.2007934,-84.7953129,5920.8208862188,"960 Joe Frank Harris Parkway, Cartersville, GA 30120-2129"
520,Piedmont Columbus Regional Midtown,B,31901,32.480522,-84.9816665,5925.7268863634,"710 Center Street, Columbus, GA 31901-1527"
521,Piedmont Eastside Medical Center,B,30078,33.8775615,-84.0218471,5875.3832222648,"1700 Medical Way, Snellville, GA 30078-2195"
522,Piedmont Fayette Hospital,B,30214,33.4523485,-84.507658,5901.6423790545,"1255 Highway 54 W., Fayetteville, GA 30214"
523,Piedmont Hospital,B,30309,33.8091054,-84.393287,5896.3970613654,"1968 Peachtree Road NW, Atlanta, GA 30309-1231"
524,Piedmont Rockdale Hospital,B,30012,33.680723,-84.002,5873.4536191446,"1412 Milstead Avenue NE, Conyers, GA 30012-3877"
525,St. Mary's Sacred Heart Hospital,B,30553,34.4397599,-83.1323882,5827.0843357985,"367 Clear Creek Parkway, Lavonia, GA 30553"
526,Tift Regional Medical Center,B,31794,31.4704168,-83.4913721,5834.788191866,"901 East 18th Street, Tifton, GA 31794-3648"
527,Upson Regional Medical Center,B,30286,32.8862947,-84.3361834,5889.6531175265,"801 West Gordon Street, Thomaston, GA 30286-2831"
528,Wellstar Cobb Hospital,B,30106,33.856383,-84.6044634,5908.67414249,"3950 Austell Road, Austell, GA 30106-1121"
529,Wellstar Douglas Hospital,B,30134,33.739384,-84.731108,5915.5164307988,"8954 Hospital Drive, Douglasville, GA 30134-2282"
530,Wellstar Kennestone Hospital,B,30060,33.9695872,-84.5516065,5906.0613425597,"677 Church Street, Marietta, GA 30060-1148"
531,"Atrium Health Navicent, Medical Center",C,31201,32.8338806,-83.6353193,5848.8378444862,"777 Hemlock Street, Macon, GA 31201-2155"
532,Augusta University Medical Center,C,30912,33.4706236,-81.9899149,5756.9168004817,"1120 15th Street, Augusta, GA 30912-5563"
533,Candler Hospital,C,31405,32.027973,-81.1002076,5697.3991782738,"5353 Reynolds Street, Savannah, GA 31405-6013"
534,Crisp Regional Hospital,C,31015,31.9774769,-83.7813708,5853.8521541953,"902 North Seventh Street, Cordele, GA 31015-5007"
535,Emory Decatur Hospital,C,30033,33.7907835,-84.2828266,5889.9951399094,"2701 N. Decatur Road, Decatur, GA 30033-5995"
536,Emory University Hospital,C,30322,33.7921115,-84.3221599,5892.2552116154,"1364 Clifton Road NE, Atlanta, GA 30322-1102"
537,Emory University Hospital Midtown,C,30308,33.7680976,-84.386158,5895.8337729098,"550 Peachtree Street NE, Atlanta, GA 30308"
538,Fannin Regional Hospital,C,30513,34.9177348,-84.3743296,5899.5624018676,"2855 Old Highway 5 North, Blue Ridge, GA 30513-6248"
539,Habersham Medical Center,C,30535,34.5810438,-83.5370886,5850.7191393894,"541 Historic Highway 441 North, Demorest, GA 30535-4528"
540,Hamilton Medical Center,C,30720,34.7896877,-84.9847419,5933.6513074752,"1200 Memorial Drive, Dalton, GA 30720-2529"
541,Houston Medical Center,C,31093,32.6167516,-83.630652,5847.663749636,"1601 Watson Boulevard, Warner Robins, GA 31093-3431"
542,John D. Archbold Memorial Hospital,C,31792,30.825069,-83.971996,5860.6319741438,"915 Gordon Avenue, Thomasville, GA 31792-6614"
543,Memorial Health Meadows Hospital,C,30474,32.2090345,-82.3758517,5772.7854584824,"One Meadows Parkway, Vidalia, GA 30474-8915"
544,North Fulton Hospital,C,30076,34.063173,-84.3198938,5893.1633533965,"3000 Hospital Boulevard, Roswell, GA 30076-3899"
545,Northeast Georgia Medical Center,C,30501,34.3043586,-83.8172049,5865.4526485707,"743 Spring Street, Gainesville, GA 30501-3899"
546,Northeast Georgia Medical Center Barrow,C,30680,34.0080226,-83.7077061,5857.950059188,"316 N. Broad Street, Winder, GA 30680-2150"
547,Northeast Georgia Medical Center Braselton,C,30517,34.1191181,-83.8386845,5865.900887466,"1400 River Place, Braselton, GA 30517-5600"
548,Northside Hospital Atlanta,C,30342,33.9091884,-84.3540514,5894.5283455269,"1000 Johnson Ferry Road NE, Atlanta, GA 30342-1611"
549,Northside Hospital Cherokee,C,30115,34.2284137,-84.4641397,5902.0270501538,"450 Northside Cherokee Blvd, Canton, GA 30115-8015"
550,Northside Hospital Forsyth,C,30041,34.1786691,-84.1403877,5883.3642473315,"1200 Northside Forsyth Drive, Cumming, GA 30041-7659"
551,Piedmont Henry Hospital,C,30281,33.510351,-84.2271743,5885.720933245,"1133 Eagle's Landing Parkway, Stockbridge, GA 30281-5099"
552,Piedmont Newton Hospital,C,30014,33.6013057,-83.8480341,5864.2900408329,"5126 Hospital Drive, Covington, GA 30014-2567"
553,Piedmont Walton,C,30655,33.7989051,-83.7502902,5859.5034573867,"2151 West Spring Street, Monroe, GA 30655-2140"
554,South Georgia Medical Center,C,31602,30.8625,-83.2863,5820.1718740609,"2501 North Patterson Street, Valdosta, GA 31602-1735"
555,Southeast Georgia Health System - Brunswick Campus,C,31520,31.1757277,-81.4850779,5715.2631778027,"2415 Parkwood Drive, Brunswick, GA 31520-4252"
556,Southern Regional Medical Center,C,30274,33.5793831,-84.3896726,5895.3262322556,"11 Upper Riverdale Road SW, Riverdale, GA 30274-2615"
557,St. Francis-Emory Healthcare,C,31904,32.5067896,-84.9593342,5924.5126514534,"2122 Manchester Expressway, Columbus, GA 31904"
558,St. Joseph's Hospital,C,31419,31.98515,-81.154752,5700.3399549644,"11705 Mercy Boulevard, Savannah, GA 31419-1791"
559,"St. Mary's Health Care System, Inc.",C,30606,33.947691,-83.405571,5840.4116125356,"1230 Baxter Street, Athens, GA 30606"
560,Stephens County Hospital,C,30577,34.593676,-83.3480309,5840.0453517359,"163 Hospital Drive, Toccoa, GA 30577-9700"
561,Tanner Medical Center of Carrollton,C,30117,33.5697787,-85.0744284,5934.6581543231,"705 Dixie Street, Carrollton, GA 30117-3818"
562,Tanner Medical Center of Villa Rica,C,30180,33.7444521,-84.9175329,5926.230912015,"601 Dallas Highway, Villa Rica, GA 30180-1202"
563,Union General Hospital,C,30512,34.8858798,-83.9623541,5876.1299944,"35 Hospital Road, Blairsville, GA 30512-3139"
564,Wayne Memorial Hospital,C,31545,31.6020007,-81.8917178,5741.4115227056,"865 S. First Street, Jesup, GA 31545"
565,Wellstar Atlanta Medical Center Downtown,C,30312,33.7629065,-84.3729609,5895.0573298239,"303 Parkway Drive NE, Atlanta, GA 30312-1212"
566,WellStar Spalding Regional Hospital,C,30224,33.2391197,-84.2673631,5886.9991811578,"601 S. Eighth Street, Griffin, GA 30224-4294"
567,Wellstar West Georgia Medical Center,C,30240,33.032552,-85.0586022,5931.9882118695,"1514 Vernon Road, Lagrange, GA 30240-4199"
568,Atlanta Medical Center South Campus,D,30344,33.6803899,-84.4269735,5897.846712751,"1170 Cleveland Avenue, East Point, GA 30344-3665"
569,Grady Memorial Hospital Corporation,D,30303,33.7516709,-84.3820793,5895.5379190454,"80 Jesse Hill Jr. Drive SE, Atlanta, GA 30303-3022"
570,Northside Hospital Duluth,D,30096,34.0011574,-84.1638617,5884.0022754447,"3620 Howell Ferry Road, Duluth, GA 30096"
571,Northside Hospital Gwinnett,D,30046,33.9635082,-84.0176866,5875.4916354579,"1000 Medical Center Boulevard, Lawrenceville, GA 30046-7694"
572,Dodge County Hospital,G,31023,32.1855837,-83.1788277,5819.5156749961,"901 Griffin Avenue, Eastman, GA 31023-2223"
573,Donalsonville Hospital,G,39845,31.0509415,-84.8816162,5915.250165399,"102 Hospital Circle, Donalsonville, GA 39845-1199"
574,Taylor Regional Hospital,G,31036,32.2973395,-83.4852746,5837.8693420295,"222 Perry Highway, Hawkinsville, GA 31036"
575,Allen Hospital,A,50703,42.5266507,-92.3395639,6337.2079181752,"1825 Logan Avenue, Waterloo, IA 50703-1916"
576,Genesis Medical Center-Davenport,B,52803,41.5416972,-90.5565222,6246.8786882253,"1227 E. Rusholme Street, Davenport, IA 52803-2498"
577,Lakes Regional Healthcare,B,51360,43.3826179,-95.1288898,6475.4767020075,"2301 Hwy 71 South, Spirit Lake, IA 51360-6810"
578,UnityPoint Health - Trinity Muscatine,B,52761,41.433172,-91.0545219,6272.7215260788,"1518 Mulberry Avenue, Muscatine, IA 52761-3499"
579,Broadlawns Medical Center,C,50314,41.616506,-93.6421497,6406.1689453051,"1801 Hickman Road, Des Moines, IA 50314-1597"
580,CHI Health Mercy Council Bluffs,C,51503,41.2686369,-95.8394748,6521.1138292037,"800 Mercy Drive, Council Bluffs, IA 51503-3128"
581,Iowa Lutheran Hospital,C,50316,41.6021918,-93.6097994,6404.5408545011,"700 E. University Avenue, Des Moines, IA 50316-2392"
582,Iowa Methodist Medical Center,C,50309,41.5892197,-93.6335758,6405.8058960457,"1200 Pleasant Street, Des Moines, IA 50309-9976"
583,Mary Greeley Medical Center,C,50010,42.0327263,-93.6117406,6403.390287844,"1111 Duff Avenue, Ames, IA 50010-5745"
584,Mercy Iowa City,C,52245,41.6641176,-91.528466,6296.9861170704,"500 E. Market Street, Iowa City, IA 52245-2689"
585,Mercy Medical Center,C,52403,41.9784474,-91.6559663,6303.147221674,"701 10th Street SE, Cedar Rapids, IA 52403-1292"
586,MercyOne Clinton Medical Center - North Campus,C,52732,41.8614111,-90.1892084,6227.8358141944,"1410 N. Fourth Street, Clinton, IA 52732-2940"
587,MercyOne Des Moines Medical Center,C,50314,41.5989873,-93.6229402,6405.2284577587,"1111 6th Avenue, Des Moines, IA 50314-2611"
588,MercyOne Dubuque Medical Center,C,52001,42.4925024,-90.674608,6252.4672715398,"250 Mercy Drive, Dubuque, IA 52001-7360"
589,MercyOne West Des Moines Medical Center,C,50266,41.5978449,-93.790643,6413.8884842075,"1755 59th Place, West Des Moines, IA 50266"
590,Methodist Jennie Edmundson Hospital,C,51503,41.2685464,-95.8347527,6520.8695876175,"933 E. Pierce Street, Council Bluffs, IA 51503-4652"
591,Methodist West Hospital,C,50266,41.5963821,-93.7952894,6414.13276465,"1660 60th Street, West Des Moines, IA 50266"
592,Ottumwa Regional Health Center,C,52501,41.0288887,-92.3895049,6342.6254908127,"1001 E. Pennsylvania Avenue, Ottumwa, IA 52501-2186"
593,Southeast Iowa Regional Medical Center - Fort Madison Campus,C,52627,40.624254,-91.382318,6290.5844156281,"5445 Avenue O, Fort Madison, IA 52627-0174"
594,Spencer Hospital,C,51301,43.149941,-95.143174,6477.1824226583,"1200 First Avenue East, Spencer, IA 51301"
595,St. Anthony Regional Hospital,C,51401,42.0564248,-94.8660363,6467.5846632748,"311 South Clark Street, Carroll, IA 51401-3038"
596,UnityPoint Health - Finley Hospital,C,52001,42.4962806,-90.6859143,6253.0411369185,"350 N. Grandview Avenue, Dubuque, IA 52001-6388"
597,UnityPoint Health - St. Luke's Hospital in Cedar Rapids,C,52402,41.9852983,-91.6604849,6303.3700827592,"1026 A Avenue NE, Cedar Rapids, IA 52402-3026"
598,UnityPoint Health - St. Luke's Regional Medical Center of Sioux City,C,51104,42.5194638,-96.4059744,6543.9978943734,"2720 Stone Park Boulevard, Sioux City, IA 51104-2000"
599,UnityPoint Health - Trinity Bettendorf,C,52722,41.5660214,-90.5198278,6244.9710695632,"4500 Utica Ridge Road, Bettendorf, IA 52722-1626"
600,UnityPoint Health - Trinity Regional Medical Center,C,50501,42.4938813,-94.1892636,6431.4287872922,"802 Kenyon Road, Fort Dodge, IA 50501-5795"
601,UnityPoint Health-Grinnell Regional Medical Center,C,50112,41.7425262,-92.7344295,6359.0391309543,"210 Fourth Avenue, Grinnell, IA 50112-1833"
602,MercyOne North Iowa Medical Center,D,50401,43.150633,-93.217178,6380.2225360652,"1000 Fourth Street SW, Mason City, IA 50401-2800"
603,MercyOne Siouxland Medical Center,D,51101,42.4954546,-96.4011583,6543.8787322597,"801 5th Street, Sioux City, IA 51101"
604,MercyOne Waterloo Medical Center,D,50702,42.4610567,-92.3460308,6337.662437702,"3421 W. Ninth Street, Waterloo, IA 50702-5499"
605,Southeast Iowa Regional Medical Center - West Burlington Campus,D,52655,40.80922,-91.1702814,6279.2963197168,"1221 S. Gear Avenue, West Burlington, IA 52655-1681"
606,University of Iowa Hospitals and Clinics,D,52242,41.6594594,-91.5479919,6297.9995468908,"200 Hawkins Drive, Iowa City, IA 52242-1009"
607,MercyOne Cedar Falls Medical Center,G,50613,42.5336466,-92.4580897,6343.226431068,"515 College Street, Cedar Falls, IA 50613-2500"
608,UnityPoint Health - Marshalltown,G,50158,42.0490806,-92.9193637,6367.8466946215,"3 S. Fourth Avenue, Marshalltown, IA 50158-2998"
609,Portneuf Medical Center,A,83201,42.8738682,-112.4210182,7339.5269136743,"777 Hospital Way, Pocatello, ID 83201-4004"
610,Saint Alphonsus Medical Center - Nampa,A,83687,43.5974489,-116.517392,7521.4614844599,"4300 E Flamingo Ave, Nampa, ID 83687-3138"
611,St. Luke's Boise Medical Center,A,83712,43.6128522,-116.1923153,7505.7277899125,"190 East Bannock Street, Boise, ID 83712-6241"
612,St. Luke's Magic Valley Medical Center,A,83301,42.5907332,-114.4959781,7446.0626175922,"801 Pole Line Road West, Twin Falls, ID 83301-5810"
613,St. Luke's Meridian Medical Center,A,83642,43.5998371,-116.3522255,7513.5906762861,"520 S. Eagle Rd., Meridian, ID 83642-6351"
614,West Valley Medical Center,A,83605,43.6544661,-116.6948518,7528.562981693,"1717 ARLINGTON AVE, Caldwell, ID 83605-4864"
615,Eastern Idaho Regional Medical Center,B,83404,43.4700469,-111.9916136,7307.6077660418,"3100 Channing Way, Idaho Falls, ID 83404-7533"
616,Kootenai Health,B,83814,47.6962908,-116.793832,7438.3757849314,"2003 Kootenai Health Way, Coeur D'Alene, ID 83814-2677"
617,Saint Alphonsus Regional Medical Center - Boise,B,83706,43.613949,-116.2565541,7508.7459196348,"1055 North Curtis Road, Boise, ID 83706-1370"
618,St. Luke's Nampa Medical Center,B,83687,43.6173907,-116.5903087,7524.46117733,"9850 W. St. Luke's Drive, Nampa, ID 83687-7912"
619,Madison Memorial Hospital,C,83440,43.825512,-111.770711,7290.4050075644,"450 East Main St, Rexburg, ID 83440-2048"
620,St. Joseph Regional Medical Center,D,83501,46.4164964,-117.0249777,7479.3676518412,"415 Sixth Street, Lewiston, ID 83501-0816"
621,Mountain View Hospital,G,83404,43.4743705,-111.987557,7307.3318314291,"2325 Coronado Street, Idaho Falls, ID 83404"
622,AdventHealth GlenOaks,A,60139,41.914654,-88.057238,6118.2259379542,"701 N. Winthrop Avenue, Glendale Heights, IL 60139-1403"
623,AdventHealth Hinsdale,A,60521,41.8056124,-87.9206821,6111.0246909333,"120 N. Oak Street, Hinsdale, IL 60521-3890"
624,AdventHealth La Grange,A,60525,41.7969289,-87.8859883,6109.2237204998,"5101 S. Willow Springs Road, La Grange, IL 60525-2680"
625,Ascension Resurrection,A,60631,41.987827,-87.8143703,6105.8720205492,"7435 W. Talcott Avenue, Chicago, IL 60631-3746"
626,Blessing Hospital,A,62301,39.9356331,-91.3983503,6292.175790425,"11th & Broadway, Quincy, IL 62301"
627,Carle Foundation Hospital,A,61801,40.1178595,-88.2138419,6123.7354969062,"611 W. Park Street, Urbana, IL 61801-2595"
628,Elmhurst Memorial Hospital,A,60126,41.864222,-87.9357411,6111.8973311191,"155 East Brush Hill Road, Elmhurst, IL 60126-2989"
629,Graham Hospital,A,61520,40.5527854,-90.039458,6220.1713511031,"210 W. Walnut Street, Canton, IL 61520-2497"
630,HSHS St. Elizabeth's Hospital,A,62269,38.5906689,-89.9339015,6214.5305313605,"1 Saint Elizabeth's Blvd, O'Fallon, IL 62269"
631,Insight Hospital & Medical Center Chicago,A,60616,41.8466974,-87.6213852,6095.6945672357,"2525 S. Michigan Avenue, Chicago, IL 60616-2477"
632,Loyola Gottlieb Memorial Hospital,A,60160,41.9108216,-87.8423407,6107.1739903553,"701 W. North Avenue, Melrose Park, IL 60160-1692"
633,MacNeal Hospital,A,60402,41.8321577,-87.7916104,6104.4266548596,"3249 S. Oak Park Avenue, Berwyn, IL 60402-0715"
634,McDonough District Hospital,A,61455,40.4479134,-90.6657847,6253.1047752882,"525 E. Grant Street, Macomb, IL 61455-3318"
635,Morris Hospital,A,60450,41.3691093,-88.4254953,6136.4667353281,"150 W. High Street, Morris, IL 60450-1497"
636,Northwest Community Hospital,A,60005,42.0673573,-87.9935772,6115.2010380128,"800 W. Central Road, Arlington Heights, IL 60005-2392"
637,Northwestern Medicine Central DuPage Hospital,A,60190,41.872551,-88.15703,6123.2927755384,"25 N. Winfield Road, Winfield, IL 60190"
638,Northwestern Medicine Delnor Hospital,A,60134,41.8856574,-88.3431137,6132.8816367234,"300 Randall Road, Geneva, IL 60134"
639,Northwestern Medicine Huntley Hospital,A,60142,42.1791104,-88.4027467,6136.3268342441,"10400 Haligus Rd, Huntley, IL 60142"
640,Northwestern Medicine Kishwaukee Hospital,A,60115,41.9628227,-88.7238401,6152.541160683,"1 Kish Hospital Drive, DeKalb, IL 60115-9602"
641,Northwestern Medicine McHenry Hospital,A,60050,42.3182475,-88.2793253,6130.2030844344,"4201 Medical Center Drive, McHenry, IL 60050-9506"
642,Northwestern Medicine Palos Hospital,A,60463,41.6687555,-87.813948,6105.2893295803,"12251 S. 80th Avenue, Palos Heights, IL 60463-0930"
643,OSF HealthCare Saint Francis Medical Center,A,61637,40.7018902,-89.5907819,6196.6660457427,"530 NE Glen Oak Avenue, Peoria, IL 61637-0001"
644,OSF Saint James - John W. Albrecht Medical Center,A,61764,40.8733544,-88.6761509,6148.9408562104,"2500 W. Reynolds Street, Pontiac, IL 61764-2194"
645,Ottawa Regional Hospital and Healthcare Center dba OSF Saint Elizabeth Medical Center,A,61350,41.3577404,-88.824195,6157.1259627504,"1100 E. Norris Drive, Ottawa, IL 61350-1687"
646,Riverside Medical Center,A,60901,41.1256827,-87.8852665,6108.0530370607,"350 N. Wall Street, Kankakee, IL 60901-0749"
647,Rush Copley Medical Center,A,60504,41.7294968,-88.269583,6128.8830038552,"2000 Ogden Avenue, Aurora, IL 60504-7222"
648,Rush Oak Park Hospital,A,60304,41.8785658,-87.8030661,6105.0982371215,"520 S. Maple Avenue, Oak Park, IL 60304-1097"
649,Rush University Medical Center,A,60612,41.8746425,-87.669154,6098.2046014677,"1653 W. Congress Parkway, Chicago, IL 60612-3833"
650,SIH Memorial Hospital of Carbondale,A,62901,37.7277551,-89.2202884,6175.4930268115,"405 W. Jackson Street, Carbondale, IL 62901-9000"
651,Silver Cross Hospital,A,60451,41.544463,-87.983788,6113.8515301938,"1900 Silver Cross Boulevard, New Lenox, IL 60451"
652,SSM Health St. Mary's Hospital-Centralia,A,62801,38.5300938,-89.1172755,6170.3914152225,"400 N. Pleasant Avenue, Centralia, IL 62801-3091"
653,UnityPoint Health - Methodist,A,61636,40.7007812,-89.5952936,6196.902004165,"221 NE Glen Oak Avenue, Peoria, IL 61636-4310"
654,University of Chicago Medical Center,A,60637,41.7883128,-87.6045656,6094.716772902,"5841 S. Maryland Avenue, Chicago, IL 60637-1447"
655,AdventHealth Bolingbrook,B,60440,41.6807313,-88.0836217,6119.2217203166,"500 Remington Boulevard, Bolingbrook, IL 60440-4988"
656,Ascension Alexian Brothers,B,60007,42.0046842,-88.0166379,6116.2831078137,"800 Biesterfield Road, Elk Grove Village, IL 60007-3397"
657,Ascension Mercy,B,60506,41.7855592,-88.3257258,6131.852634539,"1325 N. Highland Avenue, Aurora, IL 60506-1449"
658,Ascension Saint Alexius,B,60169,42.0532391,-88.1411079,6122.744675755,"1555 Barrington Road, Hoffman Estates, IL 60169-1019"
659,Ascension Saint Francis,B,60202,42.0246094,-87.6844059,6099.2689184379,"355 Ridge Avenue, Evanston, IL 60202-3399"
660,Ascension Saint Joseph - Joliet,B,60435,41.5276041,-88.1361629,6121.7036908297,"333 N. Madison Street, Joliet, IL 60435-6595"
661,Ascension Saint Joseph-Chicago,B,60657,41.9341784,-87.6357937,6096.6024081328,"2900 N. Lake Shore Drive, Chicago, IL 60657"
662,Ascension Saint Joseph-Elgin,B,60123,42.0357784,-88.3267271,6132.2414786149,"77 N. Airlite Street, Elgin, IL 60123-4912"
663,Ascension Saint Mary-Chicago,B,60622,41.9023507,-87.683302,6098.9838685409,"2233 W. Division Street, Chicago, IL 60622-8151"
664,Ascension Saint Mary-Kankakee,B,60901,41.1204987,-87.8720403,6107.3561558045,"500 W. Court Street, Kankakee, IL 60901-3661"
665,Edward Hospital,B,60540,41.7611376,-88.1500562,6122.7683497521,"801 S. Washington Street, Naperville, IL 60540-7499"
666,"Genesis Medical Center, Silvis",B,61282,41.495809,-90.418714,6239.7678202109,"801 Illini Drive, Silvis, IL 61282-1893"
667,HSHS St. Anthony's Memorial Hospital,B,62401,39.126797,-88.550591,6140.4198165328,"503 N. Maple Street, Effingham, IL 62401-2099"
668,"HSHS St. Joseph's Hospital, Breese",B,62230,38.626075,-89.523358,6192.373064579,"9515 Holy Cross Lane, Breese, IL 62230-0099"
669,Humboldt Park Health,B,60622,41.9006786,-87.6996714,6099.8222224431,"1044 N. Francisco, Chicago, IL 60622-2794"
670,Ingalls Memorial Hospital,B,60426,41.607243,-87.6595979,6097.2106614405,"1 Ingalls Drive, Harvey, IL 60426-3591"
671,Loretto Hospital,B,60644,41.8721531,-87.763604,6103.057369759,"645 S. Central Avenue, Chicago, IL 60644-9987"
672,NorthShore University HealthSystem -Evanston Hospital,B,60201,42.0655989,-87.6842083,6099.3354517373,"2650 Ridge Avenue, Evanston, IL 60201-1613"
673,NorthShore University HealthSystem -Glenbrook Hospital,B,60025,42.091372,-87.8538835,6108.0799876418,"2100 Pfingsten Road, Glenview, IL 60025"
674,NorthShore University HealthSystem-Highland Park Hospital,B,60035,42.189816,-87.807584,6105.8816217477,"777 Park Avenue W., Highland Park, IL 60035"
675,OSF Sacred Heart Medical Center,B,61832,40.1381038,-87.6456841,6093.7623776093,"812 N. Logan Avenue, Danville, IL 61832-3788"
676,OSF Saint Anthony Medical Center,B,61108,42.2697837,-89.0074714,6167.3575009631,"5666 E. State Street, Rockford, IL 61108-2425"
677,OSF Saint Anthony's Health Center,B,62002,38.9076261,-90.1721006,6227.3526466348,"1 St. Anthonys Way, Alton, IL 62002-4579"
678,OSF St. Mary Medical Center,B,61401,40.9882054,-90.3637395,6237.0697656394,"3333 N. Seminary Street, Galesburg, IL 61401-1299"
679,Swedish Hospital,B,60625,41.9752241,-87.6981672,6099.8832081447,"5145 N. California Avenue, Chicago, IL 60625-3688"
680,UnityPoint Health - Proctor,B,61614,40.7529512,-89.5976133,6197.0400223583,"5409 N. Knoxville Avenue, Peoria, IL 61614-5094"
681,Advocate Condell Medical Center,C,60048,42.2744766,-87.9575656,6113.6970434058,"801 S. Milwaukee Avenue, Libertyville, IL 60048-3199"
682,Advocate Good Samaritan Hospital,C,60515,41.817932,-88.0090369,6115.5934455982,"3815 Highland Avenue, Downers Grove, IL 60515-1590"
683,Advocate Good Shepherd Hospital,C,60010,42.195692,-88.1732015,6124.6012271532,"450 IL-22, Barrington, IL 60010-1901"
684,Advocate Illinois Masonic Medical Center,C,60657,41.9367831,-87.6513434,6097.4062440774,"836 W. Wellington Avenue, Chicago, IL 60657-5193"
685,Advocate Lutheran General Hospital,C,60068,42.0384783,-87.847611,6107.6665076995,"1775 Dempster Street, Park Ridge, IL 60068-1174"
686,Advocate Sherman Hospital,C,60123,42.069983,-88.3307273,6132.4928308595,"1425 N. Randall Road, Elgin, IL 60123-2300"
687,Alton Memorial Hospital,C,62002,38.8996874,-90.1591356,6226.6565666245,"1 Memorial Drive, Alton, IL 62002-6722"
688,Anderson Hospital,C,62062,38.7368469,-89.9462256,6215.2019824011,"6800 State Route 162, Maryville, IL 62062-8500"
689,Carle BroMenn Medical Center,C,61761,40.4963905,-88.9910596,6165.0921584934,"1304 Franklin Avenue, Normal, IL 61761"
690,Carle Richland Memorial Hospital,C,62450,38.7350509,-88.0770778,6114.4746109437,"800 E. Locust Street, Olney, IL 62450-2553"
691,CGH Medical Center,C,61081,41.8016008,-89.6971385,6202.5015595257,"100 E Le Fevre Rd, Sterling, IL 61081-1279"
692,Decatur Memorial Hospital,C,62526,39.8666192,-88.9613543,6163.0226359609,"2300 N. Edward Street, Decatur, IL 62526-4192"
693,FHN Memorial Hospital,C,61032,42.2959242,-89.6377339,6199.5866569584,"1045 W. Stephenson Street, Freeport, IL 61032-4899"
694,Franciscan St. James Health - Olympia Fields,C,60461,41.5228644,-87.7112953,6099.7258350156,"20201 S. Crawford Avenue, Olympia Fields, IL 60461-1080"
695,Galesburg Cottage Hospital,C,61401,40.9556647,-90.3657881,6237.1860150255,"695 N. Kellogg Street, Galesburg, IL 61401-2885"
696,Heartland Regional Medical Center,C,62959,37.742889,-88.99147,6163.001046382,"3333 W. Deyoung Street, Marion, IL 62959"
697,Holy Cross Hospital,C,60629,41.76905,-87.6924155,6099.2048897915,"2701 W. 68th Street, Chicago, IL 60629-1882"
698,HSHS St. John's Hospital,C,62769,39.8057286,-89.6451854,6199.2678079262,"800 E. Carpenter Street, Springfield, IL 62769-0002"
699,HSHS St. Mary's Hospital,C,62521,39.8274883,-88.9316974,6161.4177615952,"1800 E. Lake Shore Drive, Decatur, IL 62521-3883"
700,Jackson Park Hospital,C,60649,41.7576761,-87.5851304,6093.6565297791,"7531 S. Stony Island Avenue, Chicago, IL 60649-3993"
701,John H. Stroger Jr. Hospital,C,60612,41.8727494,-87.6757854,6098.5420855421,"1969 W. Ogden, Chicago, IL 60612-3785"
702,Katherine Shaw Bethea Hospital,C,61021,41.8445416,-89.4793127,6191.3008462421,"403 E. First St, Dixon, IL 61021-3187"
703,Loyola University Medical Center,C,60153,41.8598585,-87.8351047,6106.7132262768,"2160 South First Avenue, Maywood, IL 60153-5585"
704,Memorial Hospital Belleville,C,62226,38.5502641,-90.0214907,6219.2611993663,"4500 Memorial Drive, Belleville, IL 62226-5399"
705,Memorial Medical Center,C,62781,39.8096826,-89.6560412,6199.8450390219,"701 N. First Street, Springfield, IL 62781-0001"
706,Mt. Sinai Hospital,C,60608,41.860833,-87.6946003,6099.4875796744,"1500 South Fairfield Avenue, Chicago, IL 60608"
707,"Northwestern Medicine, Lake Forest Hospital",C,60045,42.2564901,-87.8656264,6108.9672183854,"1000 N. Westmoreland Road, Lake Forest, IL 60045-1696"
708,Northwestern Memorial Hospital,C,60611,41.8946256,-87.6209858,6095.7658064547,"251 E. Huron Street, Chicago, IL 60611-2908"
709,OSF HealthCare System dba OSF Little Co of Mary Medical Center,C,60805,41.7213929,-87.6928628,6099.1396372883,"2800 West 95th Street, Evergreen Park, IL 60805-2795"
710,OSF Heart of Mary Medical Center,C,61801,40.1179701,-88.2276504,6124.4650689441,"1400 W. Park Street, Urbana, IL 61801-2396"
711,OSF St. Joseph Medical Center,C,61701,40.4825368,-88.9552457,6163.199316724,"2200 E. Washington Street, Bloomington, IL 61701-4323"
712,Passavant Area Hospital,C,62650,39.746148,-90.2601491,6231.9196866888,"1600 W. Walnut Street, Jacksonville, IL 62650-1136"
713,Saint Anthony Hospital,C,60623,41.855127,-87.6981271,6099.658418889,"2875 W. 19th Street, Chicago, IL 60623-3596"
714,SIH Herrin Hospital,C,62948,37.8014366,-89.0262152,6164.9413208607,"201 S. 14th Street, Herrin, IL 62948-3631"
715,SSM Health Good Samaritan Hospital - Mount Vernon,C,62864,38.2970823,-88.9389927,6160.5709220178,"1 Good Samaritan Way, Mount Vernon, IL 62864-2899"
716,St Bernard Hospital,C,60621,41.7785632,-87.6336764,6096.1972806504,"326 W. 64th Street, Chicago, IL 60621-3146"
717,St. Margaret's Health - Peru,C,61354,41.3289799,-89.1243531,6172.6706616614,"925 West Street, Peru, IL 61354-2757"
718,St. Margaret's Health - Spring Valley,C,61362,41.3289214,-89.1930754,6176.2358907986,"600 E. First Street, Spring Valley, IL 61362-2034"
719,Thorek Memorial Hospital,C,60613,41.9547337,-87.6515236,6097.4494873035,"850 W. Irving Park Road, Chicago, IL 60613-3077"
720,Trinity Moline,C,61265,41.4681104,-90.530915,6245.5857340767,"500 John Deere Rd, Moline, IL 61265"
721,Trinity Rock Island,C,61201,41.4826277,-90.5706604,6247.6367281498,"2701 17th Street, Rock Island, IL 61201-5393"
722,UnityPoint Health-Pekin,C,61554,40.5629866,-89.6328151,6198.8275891208,"600 S. 13th Street, Pekin, IL 61554-5098"
723,University of Illinois Hospital and Health Sciences System,C,60612,41.8693103,-87.6705173,6098.264711167,"1740 West Taylor Street, Chicago, IL 60612-7232"
724,UW Health SwedishAmerican Hospital,C,61104,42.2662132,-89.0736066,6170.7358071788,"1401 E. State Street, Rockford, IL 61104-2315"
725,Weiss Memorial Hospital,C,60640,41.966776,-87.6494472,6097.3656673309,"4646 N. Marine Drive, Chicago, IL 60640-1501"
726,West Suburban Medical Center,C,60302,41.8913716,-87.7761143,6103.7351806666,"3 Erie Court, Oak Park, IL 60302-2599"
727,Advocate Christ Medical Center,D,60453,41.7218793,-87.7324115,6101.1792524045,"4440 95th Street, Oak Lawn, IL 60453-2699"
728,Advocate South Suburban Hospital,D,60429,41.5664505,-87.6972842,6099.0816175529,"17800 S. Kedzie Avenue, Hazel Crest, IL 60429-0989"
729,Advocate Trinity Hospital,D,60617,41.7266761,-87.5669741,6092.6605803353,"2320 E. 93rd Street, Chicago, IL 60617-9984"
730,Community First Medical Center,D,60634,41.9454267,-87.7677308,6103.4013742042,"5645 W. Addison Street, Chicago, IL 60634-4455"
731,Gateway Regional Medical Center,D,62040,38.700844,-90.1432704,6225.8250366039,"2100 Madison Avenue, Granite City, IL 62040-4799"
732,Javon Bea Hospital,D,61103,42.2984409,-89.098972,6172.0561865048,"2400 N. Rockton Avenue, Rockford, IL 61103-3692"
733,Roseland Community Hospital,D,60628,41.6923072,-87.6253866,6095.6058855066,"45 W. 111th Street, Chicago, IL 60628-4200"
734,Sarah Bush Lincoln Health Center,D,61938,39.4881278,-88.2740009,6126.0742404812,"1000 Health Center Drive, Mattoon, IL 61938-0372"
735,Vista Medical Center East,F,60085,42.3781918,-87.8325227,6107.4891330401,"1324 N. Sheridan Road, Waukegan, IL 60085-2181"
736,Crossroads Community Hospital,G,62864,38.3119835,-88.9351449,6160.3741595143,"8 Doctors Park Road, Mount Vernon, IL 62864-6224"
737,HSHS Holy Family Hospital,G,62246,38.9033361,-89.4067214,6186.2018338673,"200 Health Care Drive, Greenville, IL 62246-1156"
738,Ascension St. Vincent Evansville,A,47750,37.9643196,-87.5040721,6082.1627339497,"3700 Washington Avenue, Evansville, IN 47750-0002"
739,Ascension St. Vincent Fishers Hospital,A,46037,39.9894966,-85.9161569,6002.0009101122,"13861 Olio Road, Fishers, IN 46037-3487"
740,Baptist Health Floyd,A,47150,38.3017384,-85.834286,5992.3161017864,"1850 State Street, New Albany, IN 47150-4997"
741,Community Howard Regional Health,A,46902,40.4466456,-86.1270708,6014.5336447726,"3500 S. Lafountain Street, Kokomo, IN 46902"
742,Deaconess Midtown Hospital,A,47747,37.9830836,-87.5712565,6085.8548197832,"600 Mary Street, Evansville, IN 47747-0001"
743,Dupont Hospital,A,46825,41.174876,-85.10943,5963.903406502,"2520 E. Dupont Road, Fort Wayne, IN 46825"
744,Franciscan Health Mooresville,A,46158,39.6076802,-86.3557477,6024.1738237331,"1201 Hadley Road, Mooresville, IN 46158-1789"
745,Good Samaritan Hospital,A,47591,38.6727348,-87.5328594,6085.0372981706,"520 S. Seventh Street, Vincennes, IN 47591-1098"
746,Goshen Health Hospital,A,46526,41.56341,-85.830526,6002.6443119087,"200 High Park Avenue, Goshen, IN 46526-4899"
747,Hancock Regional Hospital,A,46140,39.794902,-85.767705,5993.5139257225,"801 N. State Street, Greenfield, IN 46140-1270"
748,Hendricks Regional Health - Danville Hospital,A,46122,39.76255,-86.50165,6032.3512821184,"1000 E. Main Street, Danville, IN 46122-0409"
749,IU Health North Hospital,A,46032,39.959301,-86.1601632,6014.8145242047,"11700 N. Meridian Street, Carmel, IN 46032"
750,Northwest Health - Porter,A,46383,41.5519324,-87.0501981,6065.6135896221,"85 US-6 Frontage Road, Valparaiso, IN 46383"
751,Parkview Huntington Hospital,A,46750,40.905759,-85.4885479,5982.6283522279,"2001 Stults Road, Huntington, IN 46750-3696"
752,Parkview Regional Medical Center,A,46845,41.1841024,-85.0999992,5963.4496669598,"11109 Parkview Plaza Drive, Fort Wayne, IN 46845"
753,St. Elizabeth Dearborn,A,47025,39.111381,-84.8834278,5943.9541349907,"600 Wilson Creek Road, Lawrenceburg, IN 47025-1199"
754,St. Vincent Carmel Hospital,A,46032,39.982751,-86.143426,6013.9990850287,"13500 N. Meridian Street, Carmel, IN 46032"
755,Terre Haute Regional Hospital,A,47802,39.4195116,-87.4089787,6079.8278497349,"3901 S. Seventh Street, Terre Haute, IN 47802-5709"
756,Witham Health Services,A,46052,40.0762,-86.4750559,6031.7958943781,"2605 N. Lebanon Street, Lebanon, IN 46052"
757,Bluffton Regional Medical Center,B,46714,40.7374106,-85.1711496,5965.4369671336,"303 S. Main Street, Bluffton, IN 46714-2529"
758,Deaconess Gateway Hospital,B,47630,37.9744699,-87.444855,6078.957603629,"4011 Gateway Boulevard, Newburgh, IN 47630-8947"
759,Franciscan Health Crawfordsville,B,47933,40.0646545,-86.9082107,6054.6518626964,"1710 Lafayette Road, Crawfordsville, IN 47933-1099"
760,Franciscan Health Michigan City,B,46360,41.6597642,-86.8981078,6058.0226721973,"3500 Franciscan Way, Michigan City, IN 46360-4358"
761,Henry Community Health,B,47362,39.943402,-85.3630575,5972.5925072506,"1000 N. 16th Street, New Castle, IN 47362-4319"
